id,name,name_fr,name_ar,sector,category,sub_category,address,lat,lon,phone,website,opening_hours,operator,brand,source,source_type,source_url,confidence_score,is_verified,osm_amenity,osm_shop
osm_node_485854079,Rick's Cafe,,,food,cafe,,Boulevard Sour Jdid شارع السور الجديد,33.6049697,-7.6203619,+212 5 22 27 42 07,https://www.rickscafe.ma/,,,,OSM,osm,https://www.openstreetmap.org/node/485854079,0.72,False,bar,
osm_node_516618709,La Bodega,,,food,restaurant,tapas,Rue Allal Ben Abdellah,33.5952195,-7.6115725,,https://restopro.ma/bodega,,,,OSM,osm,https://www.openstreetmap.org/node/516618709,0.72,False,restaurant,
osm_node_516618742,La Sqala,,,food,restaurant,moroccan,Boulevard des Almohades,33.6028481,-7.619212,,https://restopro.ma/sqala,,,,OSM,osm,https://www.openstreetmap.org/node/516618742,0.72,False,restaurant,
osm_node_516618748,Pizza Hut,Pizza Hut,,food,restaurant,pizza,,33.5928474,-7.597267,,,,,Pizza Hut,OSM,osm,https://www.openstreetmap.org/node/516618748,0.72,False,restaurant,
osm_node_566450742,,,,food,bar,,,33.5947799,-7.6129688,,,,,,OSM,osm,https://www.openstreetmap.org/node/566450742,0.72,False,pub,
osm_node_566450810,,,,food,restaurant,italian,,33.5896864,-7.6265742,,,,,,OSM,osm,https://www.openstreetmap.org/node/566450810,0.72,False,restaurant,
osm_node_770274905,Chez Pépé,,,food,restaurant,,,33.595533,-7.6454829,,,,,,OSM,osm,https://www.openstreetmap.org/node/770274905,0.72,False,restaurant,
osm_node_1246675535,,,,food,restaurant,,,33.5999101,-7.6174265,,,,,,OSM,osm,https://www.openstreetmap.org/node/1246675535,0.72,False,restaurant,
osm_node_1284530297,Au 19 Heure,,,food,cafe,,,33.5827625,-7.6112767,,,,,,OSM,osm,https://www.openstreetmap.org/node/1284530297,0.72,False,cafe,
osm_node_1339080540,Maeva,,,food,cafe,coffee_shop,,33.5957256,-7.5933532,,,,,,OSM,osm,https://www.openstreetmap.org/node/1339080540,0.72,False,cafe,
osm_node_1464269335,,,,food,bar,,,33.5923152,-7.5921842,,,,,,OSM,osm,https://www.openstreetmap.org/node/1464269335,0.72,False,bar,
osm_node_1464269339,,,,food,cafe,,,33.5924515,-7.5954887,,,,,,OSM,osm,https://www.openstreetmap.org/node/1464269339,0.72,False,cafe,
osm_node_1464269345,,,,food,cafe,,,33.5923666,-7.595596,,,,,,OSM,osm,https://www.openstreetmap.org/node/1464269345,0.72,False,cafe,
osm_node_1464269346,,,,food,cafe,,,33.594621,-7.5934475,,,,,,OSM,osm,https://www.openstreetmap.org/node/1464269346,0.72,False,cafe,
osm_node_1464269358,Sampione,Sampione,,food,cafe,,,33.5928563,-7.5971409,,,Mo-Su 08:00-22:00,,,OSM,osm,https://www.openstreetmap.org/node/1464269358,0.72,False,cafe,
osm_node_1464269362,,,,food,cafe,,,33.5926705,-7.5961807,,,,,,OSM,osm,https://www.openstreetmap.org/node/1464269362,0.72,False,cafe,
osm_node_1464269368,Mahboub محبوب,Mahboub,محبوب,food,fast_food,sandwich;kebab;pizza;chicken;sausage,,33.5921991,-7.5923586,,,Mo-Su 09:00-18:00,,,OSM,osm,https://www.openstreetmap.org/node/1464269368,0.72,False,fast_food,
osm_node_1464269385,Snack Essaada,Snack Essaada,,food,fast_food,international;sandwich;kebab,Boulevard Émile Zola,33.5936543,-7.5974637,,,Mo-Su 09:00-21:00,,,OSM,osm,https://www.openstreetmap.org/node/1464269385,0.72,False,fast_food,
osm_node_1464269393,Paradisio,Paradisio,,food,restaurant,international,Boulevard Émile Zola,33.5938278,-7.5969183,,,,,,OSM,osm,https://www.openstreetmap.org/node/1464269393,0.72,False,restaurant,
osm_node_1464276479,,,,food,cafe,,,33.5920315,-7.5973448,,,,,,OSM,osm,https://www.openstreetmap.org/node/1464276479,0.72,False,cafe,
osm_node_1464276497,,,,food,cafe,,,33.592036,-7.5975808,,,,,,OSM,osm,https://www.openstreetmap.org/node/1464276497,0.72,False,cafe,
osm_node_1464579525,,,,food,cafe,,,33.5916786,-7.5917569,,,,,,OSM,osm,https://www.openstreetmap.org/node/1464579525,0.72,False,cafe,
osm_node_1464579526,Zanzi bar,,,food,bar,,,33.5901771,-7.6041272,,,,,,OSM,osm,https://www.openstreetmap.org/node/1464579526,0.72,False,bar,
osm_node_1464579534,,,,food,cafe,,,33.5921344,-7.6002863,,,,,,OSM,osm,https://www.openstreetmap.org/node/1464579534,0.72,False,cafe,
osm_node_1464579544,,,,food,fast_food,,,33.5905168,-7.5955656,,,,,,OSM,osm,https://www.openstreetmap.org/node/1464579544,0.72,False,fast_food,
osm_node_1464579550,,,,food,cafe,,,33.5909904,-7.5975933,,,,,,OSM,osm,https://www.openstreetmap.org/node/1464579550,0.72,False,cafe,
osm_node_1464579551,,,,food,cafe,,,33.5915356,-7.5918427,,,,,,OSM,osm,https://www.openstreetmap.org/node/1464579551,0.72,False,cafe,
osm_node_1464579556,,,,food,cafe,,,33.5914194,-7.59195,,,,,,OSM,osm,https://www.openstreetmap.org/node/1464579556,0.72,False,cafe,
osm_node_1464579558,Venezia Ice,,,food,cafe,ice_cream,,33.5944312,-7.5954315,,,,,,OSM,osm,https://www.openstreetmap.org/node/1464579558,0.72,False,cafe,
osm_node_1464579567,,,,food,cafe,,,33.5906061,-7.595469,,,,,,OSM,osm,https://www.openstreetmap.org/node/1464579567,0.72,False,cafe,
osm_node_1464579570,,,,food,cafe,,,33.5910262,-7.5924971,,,,,,OSM,osm,https://www.openstreetmap.org/node/1464579570,0.72,False,cafe,
osm_node_1464579583,Alhana,,,food,cafe,,,33.5900564,-7.5931006,,,,,,OSM,osm,https://www.openstreetmap.org/node/1464579583,0.72,False,cafe,
osm_node_1464579585,Tabaris,,,food,bar,,,33.5942837,-7.5963622,,,,,,OSM,osm,https://www.openstreetmap.org/node/1464579585,0.72,False,bar,
osm_node_1464579591,Café de la gare,,,food,cafe,,,33.5899952,-7.5905952,,,,,,OSM,osm,https://www.openstreetmap.org/node/1464579591,0.72,False,cafe,
osm_node_1464579592,,,,food,cafe,,,33.5909815,-7.591435,,,,,,OSM,osm,https://www.openstreetmap.org/node/1464579592,0.72,False,cafe,
osm_node_1464579600,,,,food,bar,,,33.5908564,-7.5913384,,,,,,OSM,osm,https://www.openstreetmap.org/node/1464579600,0.72,False,bar,
osm_node_1464579602,Bellevue,,,food,cafe,,,33.5906508,-7.5928083,,,,,,OSM,osm,https://www.openstreetmap.org/node/1464579602,0.72,False,cafe,
osm_node_1512083777,,,,food,bar,,,33.5627991,-7.6436279,,,,,,OSM,osm,https://www.openstreetmap.org/node/1512083777,0.72,False,bar,
osm_node_1746921486,Jus Bordeaux,,,food,cafe,coffee_shop,,33.5969487,-7.6279619,,,,,,OSM,osm,https://www.openstreetmap.org/node/1746921486,0.72,False,cafe,
osm_node_1746921504,Monsieur Brochette,,,food,fast_food,regional,,33.5949185,-7.6271531,,,,,,OSM,osm,https://www.openstreetmap.org/node/1746921504,0.72,False,fast_food,
osm_node_1746923046,,,,food,bar,,,33.5952889,-7.6255045,,,,,,OSM,osm,https://www.openstreetmap.org/node/1746923046,0.72,False,bar,
osm_node_1746925524,Mamelouk Café,,,food,restaurant,international,,33.5962988,-7.6304773,,,,,,OSM,osm,https://www.openstreetmap.org/node/1746925524,0.72,False,restaurant,
osm_node_1746934346,Café Splendeur,,,food,cafe,,Boulevard Ziraoui شارع الزيراوي,33.5962469,-7.6313052,,,,,,OSM,osm,https://www.openstreetmap.org/node/1746934346,0.72,False,cafe,
osm_node_1867119561,Luigi,,,food,restaurant,italian,Rue Ibnou Yaala Al Ifrani زنقة ابن يعلى الإفراني,33.5882356,-7.6398452,+212 5 22 39 02 71,https://luigi.ma/,,,,OSM,osm,https://www.openstreetmap.org/node/1867119561,0.72,False,restaurant,
osm_node_1875063746,Restaurant grillades au top,,,food,restaurant,,,33.5111856,-7.6105369,,,,,,OSM,osm,https://www.openstreetmap.org/node/1875063746,0.72,False,cafe,
osm_node_1875063779,,,,food,cafe,,,33.5102423,-7.6078169,,,,,,OSM,osm,https://www.openstreetmap.org/node/1875063779,0.72,False,cafe,
osm_node_1875063812,,,,food,restaurant,,,33.5109396,-7.6103706,,,,,,OSM,osm,https://www.openstreetmap.org/node/1875063812,0.72,False,restaurant,
osm_node_1875063883,,,,food,restaurant,,,33.5100315,-7.6077605,,,,,,OSM,osm,https://www.openstreetmap.org/node/1875063883,0.72,False,restaurant,
osm_node_1999265840,Hammam de la mosquée Hassan II (entrée femmes),Hammam de la mosquée Hassan II (entrée femmes),,food,bar,,,33.6078148,-7.6334113,,,,,,OSM,osm,https://www.openstreetmap.org/node/1999265840,0.72,False,public_bath,
osm_node_2009477167,Alba Fast Food,,,food,fast_food,,,33.5930113,-7.6171532,,,,,,OSM,osm,https://www.openstreetmap.org/node/2009477167,0.72,False,fast_food,
osm_node_2009477168,Cafe Black Stone,,,food,cafe,,,33.5951697,-7.610295,,,,,,OSM,osm,https://www.openstreetmap.org/node/2009477168,0.72,False,cafe,
osm_node_2038386855,Café Ghandi,,,food,cafe,,,33.5656336,-7.6379599,,,,,,OSM,osm,https://www.openstreetmap.org/node/2038386855,0.72,False,cafe,
osm_node_2102250048,Don Camilo,,,food,restaurant,spanish,Rue Abou Rakrak,33.587649,-7.612959,,,,,,OSM,osm,https://www.openstreetmap.org/node/2102250048,0.72,False,restaurant,
osm_node_2119486596,Rick's Cafe,,,food,restaurant,mediterranean,Boulevard Sour Jdid,33.604995,-7.620406,+212 522 27 42 07,https://www.rickscafe.ma/,"Mo-Su 12:00-15:00,18:30-01:00",,,OSM,osm,https://www.openstreetmap.org/node/2119486596,0.72,False,restaurant,
osm_node_2140790077,,,,food,bar,,,33.5954856,-7.6257183,,,,,,OSM,osm,https://www.openstreetmap.org/node/2140790077,0.72,False,bar,
osm_node_2140790129,Malaga,,,food,bar,,,33.5952443,-7.6251765,,,,,,OSM,osm,https://www.openstreetmap.org/node/2140790129,0.72,False,bar,
osm_node_2140793927,ماكدونالدز,,ماكدونالدز,food,fast_food,burger,Boulevard Ziraoui,33.594793,-7.6331748,,,,,ماكدونالدز,OSM,osm,https://www.openstreetmap.org/node/2140793927,0.72,False,fast_food,
osm_node_2250923969,Restaurant du Port,Restaurant du Port,,food,restaurant,fish,,33.6015279,-7.6144679,,,,,,OSM,osm,https://www.openstreetmap.org/node/2250923969,0.72,False,restaurant,
osm_node_2382656390,Lugano Glacier,,,food,cafe,,,33.5942402,-7.6376222,,,,,,OSM,osm,https://www.openstreetmap.org/node/2382656390,0.72,False,cafe,
osm_node_2382672194,Café Galatina,,,food,cafe,,,33.5100873,-7.6507181,,,,,,OSM,osm,https://www.openstreetmap.org/node/2382672194,0.72,False,cafe,
osm_node_2395470993,caffé Grandi,,,food,cafe,,,33.5200648,-7.651763,,,,,,OSM,osm,https://www.openstreetmap.org/node/2395470993,0.72,False,cafe,
osm_node_2396749934,Valencia,,,food,cafe,,,33.5289904,-7.6487632,,,,,,OSM,osm,https://www.openstreetmap.org/node/2396749934,0.72,False,cafe,
osm_node_2396749935,Havana,,,food,cafe,,,33.5285902,-7.6489134,,,,,,OSM,osm,https://www.openstreetmap.org/node/2396749935,0.72,False,cafe,
osm_node_2429582824,Restaurant Ostrea,Restaurant Ostrea,,food,restaurant,fish,,33.6018149,-7.614031,,,,,,OSM,osm,https://www.openstreetmap.org/node/2429582824,0.72,False,restaurant,
osm_node_2429583929,,,,food,restaurant,regional,,33.6076996,-7.6555825,,,,,,OSM,osm,https://www.openstreetmap.org/node/2429583929,0.72,False,restaurant,
osm_node_2429583956,Le Cabestan,,,food,restaurant,regional,,33.6080257,-7.6553304,,,,,,OSM,osm,https://www.openstreetmap.org/node/2429583956,0.72,False,restaurant,
osm_node_2429590656,,,,food,restaurant,,,33.6014266,-7.6604266,,,,,,OSM,osm,https://www.openstreetmap.org/node/2429590656,0.72,False,restaurant,
osm_node_2429590661,Lebanese Restaurant,,,food,restaurant,,,33.6007855,-7.6603997,,,,,,OSM,osm,https://www.openstreetmap.org/node/2429590661,0.72,False,restaurant,
osm_node_2528191377,Café Domani,,,food,cafe,,,33.5620309,-7.5591609,,,,,,OSM,osm,https://www.openstreetmap.org/node/2528191377,0.72,False,cafe,
osm_node_2529852965,Oliveri,,,food,ice_cream,,Rue El Kadi Iass زنقة القاضي إياس,33.585938,-7.640782,+212 5 22 98 28 98,,,,Oliveri,OSM,osm,https://www.openstreetmap.org/node/2529852965,0.72,False,ice_cream,
osm_node_2582305746,Café Ghurub الغروب,Café Ghurub,الغروب,food,cafe,,,33.5936334,-7.6790181,,,,,,OSM,osm,https://www.openstreetmap.org/node/2582305746,0.72,False,cafe,
osm_node_2582305772,Luigi,,,food,restaurant,,,33.5966434,-7.6750589,,,,,,OSM,osm,https://www.openstreetmap.org/node/2582305772,0.72,False,restaurant,
osm_node_2582305777,Sijilmassa سجلماسة,Sijilmassa,سجلماسة,food,restaurant,,,33.5909207,-7.6791755,,,,,,OSM,osm,https://www.openstreetmap.org/node/2582305777,0.72,False,restaurant,
osm_node_2582305778,Nzaha,,,food,cafe,,,33.589095,-7.6818777,,,,,,OSM,osm,https://www.openstreetmap.org/node/2582305778,0.72,False,cafe,
osm_node_2582305779,O'palm,,,food,cafe,,,33.5886958,-7.6831655,,,,,,OSM,osm,https://www.openstreetmap.org/node/2582305779,0.72,False,cafe,
osm_node_2640314819,Caffè Vernagno 1882,,,food,cafe,,Rue Attabari زنقة الطبري,33.5766221,-7.6481068,,,,,,OSM,osm,https://www.openstreetmap.org/node/2640314819,0.72,False,cafe,
osm_node_2640991897,Caniada,,,food,cafe,,,33.5835055,-7.6421257,,,,,,OSM,osm,https://www.openstreetmap.org/node/2640991897,0.72,False,cafe,
osm_node_2640991899,La Grillardière,,,food,restaurant,,Boulevard Bir Anzarane شارع بئر أنزران,33.5832948,-7.6418718,,,,,La Grillardière,OSM,osm,https://www.openstreetmap.org/node/2640991899,0.72,False,restaurant,
osm_node_2640991913,Café Arije,,,food,cafe,,,33.5819086,-7.6432771,,,,,,OSM,osm,https://www.openstreetmap.org/node/2640991913,0.72,False,cafe,
osm_node_2640991921,Café les familles,,,food,cafe,,,33.5819412,-7.6431848,,,,,,OSM,osm,https://www.openstreetmap.org/node/2640991921,0.72,False,cafe,
osm_node_2640991957,ماكدونالدز,,ماكدونالدز,food,fast_food,burger,,33.5857794,-7.6349372,+212 5 22 98 13 73,https://www.mcdonalds.ma/nos-restaurants/r%C3%A9seau-maroc/casablanca-maarif,,,ماكدونالدز,OSM,osm,https://www.openstreetmap.org/node/2640991957,0.72,False,fast_food,
osm_node_2641044304,Café le Bateau,,,food,cafe,,,33.5798896,-7.6370591,,,,,,OSM,osm,https://www.openstreetmap.org/node/2641044304,0.72,False,cafe,
osm_node_2641044308,pizzeria italian,,,food,restaurant,pizza,,33.5810317,-7.6370564,,,,,,OSM,osm,https://www.openstreetmap.org/node/2641044308,0.72,False,restaurant,
osm_node_2681851805,CNSS,,,food,bar,,,33.5438749,-7.5623967,,,,,,OSM,osm,https://www.openstreetmap.org/node/2681851805,0.72,False,public_building,
osm_node_2692755048,Class'dish,,,food,fast_food,international,,33.5900333,-7.6303903,,,,,,OSM,osm,https://www.openstreetmap.org/node/2692755048,0.72,False,fast_food,
osm_node_2694336685,Service des Mines,,,food,bar,,,33.5640748,-7.555893,,,,,,OSM,osm,https://www.openstreetmap.org/node/2694336685,0.72,False,public_building,
osm_node_2710721812,Glacier Oliveri,,,food,cafe,ice_cream,,33.5848346,-7.622941,,,,,,OSM,osm,https://www.openstreetmap.org/node/2710721812,0.72,False,cafe,
osm_node_2711741031,Café Agoustine,,,food,cafe,,Rue Al Ghadfa,33.5785797,-7.6401447,,,,,,OSM,osm,https://www.openstreetmap.org/node/2711741031,0.72,False,cafe,
osm_node_2711741034,Café Caldo,,,food,cafe,,Rue Al Fourat,33.579835,-7.640015,,,,,,OSM,osm,https://www.openstreetmap.org/node/2711741034,0.72,False,cafe,
osm_node_2711741035,Moumni,,,food,fast_food,,Rue Bussang,33.5806288,-7.6385468,,,,,,OSM,osm,https://www.openstreetmap.org/node/2711741035,0.72,False,fast_food,
osm_node_2711741039,Café Céleste,,,food,cafe,,Rue Al Mansour Al Abidi زنقة المنصور العابدي,33.5804839,-7.6412073,,,,,,OSM,osm,https://www.openstreetmap.org/node/2711741039,0.72,False,cafe,
osm_node_2711741040,CAP 3000,,,food,cafe,,Rue Al Fourate زنقة الفرات,33.5806609,-7.6410259,,,,,,OSM,osm,https://www.openstreetmap.org/node/2711741040,0.72,False,cafe,
osm_node_2714699179,Café au Petit 'Maroc مقهى إلى المغرب الصغير,Café au Petit 'Maroc,مقهى إلى المغرب الصغير,food,cafe,coffee_shop,,33.5978903,-7.6344273,,,,,,OSM,osm,https://www.openstreetmap.org/node/2714699179,0.72,False,cafe,
osm_node_2714699180,Café Bidawa,,,food,cafe,,,33.5985843,-7.6326802,,,,,,OSM,osm,https://www.openstreetmap.org/node/2714699180,0.72,False,cafe,
osm_node_2714802291,Diwan,,,food,cafe,,,33.5916481,-7.6351298,,,,,,OSM,osm,https://www.openstreetmap.org/node/2714802291,0.72,False,cafe,
osm_node_2714827220,Patisserie&Traiteur TAZI,,,food,cafe,,,33.595696,-7.6301959,,,,,,OSM,osm,https://www.openstreetmap.org/node/2714827220,0.72,False,cafe,
osm_node_2714951122,Segafredo,,,food,cafe,coffee_shop,,33.5922407,-7.6336602,,,,,Segafredo,OSM,osm,https://www.openstreetmap.org/node/2714951122,0.72,False,cafe,
osm_node_2714951123,jardin de Rome,,,food,cafe,,,33.5923237,-7.6319383,,,,,,OSM,osm,https://www.openstreetmap.org/node/2714951123,0.72,False,cafe,
osm_node_2714951124,Le Red's,,,food,cafe,,,33.5929027,-7.62923,,,,,,OSM,osm,https://www.openstreetmap.org/node/2714951124,0.72,False,cafe,
osm_node_2714951125,Le Noble,,,food,cafe,,Rue Abou Abdellah Nafii,33.5860329,-7.6342615,+212 5 22 98 80 80,,,,,OSM,osm,https://www.openstreetmap.org/node/2714951125,0.72,False,cafe,
osm_node_2777458157,Garibaldi,,,food,cafe,,,33.601513,-7.6330486,,,,,,OSM,osm,https://www.openstreetmap.org/node/2777458157,0.72,False,cafe,
osm_node_2815126356,Chawarma Nour esham شاورما نور الشام,Chawarma Nour esham,شاورما نور الشام,food,restaurant,turkish,,33.6011445,-7.634303,,,Mo-Su 12:00-24:00,,,OSM,osm,https://www.openstreetmap.org/node/2815126356,0.72,False,restaurant,
osm_node_2824650951,Venezia Ice,,,food,cafe,,,33.5866466,-7.6335102,,,,Venezia Ice,,OSM,osm,https://www.openstreetmap.org/node/2824650951,0.72,False,cafe,
osm_node_2836511415,ماكدونالدز,,ماكدونالدز,food,fast_food,burger,,33.544386,-7.6403574,,,,,ماكدونالدز,OSM,osm,https://www.openstreetmap.org/node/2836511415,0.72,False,fast_food,
osm_node_2836515135,Pizza Hut,,,food,restaurant,pizza,,33.5443065,-7.6413493,,,,,Pizza Hut,OSM,osm,https://www.openstreetmap.org/node/2836515135,0.72,False,restaurant,
osm_node_2855080444,potchi,,,food,restaurant,french,Bordeaux,33.5973488,-7.6273398,,,,,,OSM,osm,https://www.openstreetmap.org/node/2855080444,0.72,False,restaurant,
osm_node_2879158743,Meet Up Coffee Pool,,,food,cafe,,Rue Michel Ange زنقة ميشبل أنج,33.5917023,-7.6383239,,,,,,OSM,osm,https://www.openstreetmap.org/node/2879158743,0.72,False,cafe,
osm_node_2879158748,India Palace,,,food,restaurant,indian,Rue Ahmed El Mokri زنقة أحمد المقري,33.5917889,-7.6391526,,,,,,OSM,osm,https://www.openstreetmap.org/node/2879158748,0.72,False,restaurant,
osm_node_2879158751,La Flèche d’Anfa,,,food,cafe,,Boulevard d'Anfa شارع أنفا,33.5904217,-7.6380902,+212 5 22 94 23 80,,,,,OSM,osm,https://www.openstreetmap.org/node/2879158751,0.72,False,cafe,
osm_node_2880332314,Petrom بتروم,Petrom,بتروم,food,cafe,,,33.5093888,-7.6308528,,,,بتروم,بتروم,OSM,osm,https://www.openstreetmap.org/node/2880332314,0.72,False,cafe,
osm_node_2880448396,La Passion,,,food,cafe,,,33.6117108,-7.4821246,,,,,,OSM,osm,https://www.openstreetmap.org/node/2880448396,0.72,False,cafe,
osm_node_2880485804,Casa Bianca,,,food,cafe,,,33.6144212,-7.4864283,,,,,,OSM,osm,https://www.openstreetmap.org/node/2880485804,0.72,False,cafe,
osm_node_2880485807,Golf Sud,,,food,cafe,,,33.6142458,-7.48762,,,,,,OSM,osm,https://www.openstreetmap.org/node/2880485807,0.72,False,cafe,
osm_node_2880485808,Le Rital,,,food,cafe,,,33.614251,-7.4876961,,,,,,OSM,osm,https://www.openstreetmap.org/node/2880485808,0.72,False,cafe,
osm_node_2880503244,New Town,,,food,cafe,,,33.6117795,-7.4808035,,,,,,OSM,osm,https://www.openstreetmap.org/node/2880503244,0.72,False,cafe,
osm_node_2887382056,Chez Omar,,,food,restaurant,sandwich,,33.5974462,-7.635698,,,,,,OSM,osm,https://www.openstreetmap.org/node/2887382056,0.72,False,restaurant,
osm_node_2887426107,Seven 7 Days,,,food,restaurant,coffee_shop;crepe;italian;moroccan;breakfast;pizza;pasta;soba;sandwich;tea;chicken;fish;kebab;italian_pizza;burger;cake;seafood;savory_pancakes;deli,Boulevard Mohamed Zerktouni,33.5970619,-7.6382193,+212 5 22 43 03 00,,Mo-Su 07:00-01:00,,,OSM,osm,https://www.openstreetmap.org/node/2887426107,0.72,False,restaurant,
osm_node_2892070130,La Toscana,,,food,restaurant,italian,Rue Ibnou Yaala Al Ifrani زنقة ابن يعلى الإفراني,33.5885888,-7.6385756,,,,,,OSM,osm,https://www.openstreetmap.org/node/2892070130,0.72,False,restaurant,
osm_node_2894489074,Pomme de Pain,,,food,restaurant,,Rue Ibnou Yaala Al Ifrani زنقة ابن يعلى الإفراني,33.588034,-7.6401077,,,,,,OSM,osm,https://www.openstreetmap.org/node/2894489074,0.72,False,restaurant,
osm_node_2898341902,KFC,KFC,دجاج كنتاكي,food,fast_food,chicken,Rue El Kadi Iass زنقة القاضي إياس,33.5861117,-7.6368073,,,,,KFC,OSM,osm,https://www.openstreetmap.org/node/2898341902,0.72,False,fast_food,
osm_node_2901956590,Café Pasteur,,,food,cafe,,,33.5737657,-7.6245966,,,,,,OSM,osm,https://www.openstreetmap.org/node/2901956590,0.72,False,cafe,
osm_node_2902105735,café Etoile Plazza,,,food,cafe,,,33.5740365,-7.6250894,,,,,,OSM,osm,https://www.openstreetmap.org/node/2902105735,0.72,False,cafe,
osm_node_2902105736,café Alice,,,food,cafe,,,33.5740455,-7.6252611,,,,,,OSM,osm,https://www.openstreetmap.org/node/2902105736,0.72,False,cafe,
osm_node_2902105737,café Gigi,,,food,cafe,,,33.57405,-7.6253952,,,,,,OSM,osm,https://www.openstreetmap.org/node/2902105737,0.72,False,cafe,
osm_node_2902579702,café Vesal,,,food,cafe,,,33.5728315,-7.6205101,,,,,,OSM,osm,https://www.openstreetmap.org/node/2902579702,0.72,False,cafe,
osm_node_2903103365,Kaiten,,,food,bar,,Rue Oumayma Essayeh زنقة أميمة السايح,33.5881181,-7.638915,,,,,,OSM,osm,https://www.openstreetmap.org/node/2903103365,0.72,False,bar,
osm_node_2903251740,Cannelle,,,food,cafe,,,33.572472,-7.6571393,,,,,,OSM,osm,https://www.openstreetmap.org/node/2903251740,0.72,False,cafe,
osm_node_2903614163,Long Champ,,,food,bar,,,33.5727133,-7.6568925,,,,,,OSM,osm,https://www.openstreetmap.org/node/2903614163,0.72,False,bar,
osm_node_2903614169,"Nori, Restaurent Japonais",,,food,restaurant,,,33.5731692,-7.6567852,,,,,,OSM,osm,https://www.openstreetmap.org/node/2903614169,0.72,False,restaurant,
osm_node_2903614187,Bain Hay Raha حمام حي الراحة,Bain Hay Raha,حمام حي الراحة,food,bar,,,33.5715333,-7.6526922,,,,,,OSM,osm,https://www.openstreetmap.org/node/2903614187,0.72,False,public_bath,
osm_node_2903614193,Espace Coffee,,,food,cafe,,,33.5711177,-7.6517212,,,,,,OSM,osm,https://www.openstreetmap.org/node/2903614193,0.72,False,cafe,
osm_node_2903627411,Café Lily White,Café Lily White,,food,cafe,,,33.5715053,-7.6241079,,,,,,OSM,osm,https://www.openstreetmap.org/node/2903627411,0.72,False,cafe,
osm_node_2903627412,Café Soraya,Café Soraya,,food,cafe,,,33.5715156,-7.6244653,,,,,,OSM,osm,https://www.openstreetmap.org/node/2903627412,0.72,False,cafe,
osm_node_2903627421,La Brioche Dorée,,,food,cafe,,,33.5693746,-7.6255745,,,,,,OSM,osm,https://www.openstreetmap.org/node/2903627421,0.72,False,cafe,
osm_node_2905788944,Gelatino,,,food,cafe,,Rue Nationale,33.5936482,-7.6162016,,,,,,OSM,osm,https://www.openstreetmap.org/node/2905788944,0.72,False,cafe,
osm_node_2916714195,Belhaj Fast Food,,,food,fast_food,,,33.5911922,-7.6260147,,,,,,OSM,osm,https://www.openstreetmap.org/node/2916714195,0.72,False,fast_food,
osm_node_2916714196,La grotte du pêcheur,,,food,restaurant,fish_and_chips,,33.5918245,-7.6266906,,,,,,OSM,osm,https://www.openstreetmap.org/node/2916714196,0.72,False,restaurant,
osm_node_2916714199,Nouaima,,,food,cafe,,,33.592001,-7.626468,,,,,,OSM,osm,https://www.openstreetmap.org/node/2916714199,0.72,False,cafe,
osm_node_2916728402,Keykos,,,food,restaurant,,,33.5924545,-7.6270366,,,,,,OSM,osm,https://www.openstreetmap.org/node/2916728402,0.72,False,restaurant,
osm_node_2916737107,Snack Bir Anzarane,,,food,fast_food,,,33.5805691,-7.6372398,,,,,,OSM,osm,https://www.openstreetmap.org/node/2916737107,0.72,False,fast_food,
osm_node_2916737108,Snack Khatib,,,food,fast_food,,,33.5808187,-7.6376854,,,,,,OSM,osm,https://www.openstreetmap.org/node/2916737108,0.72,False,fast_food,
osm_node_2916737109,Snack Tahiri,,,food,fast_food,,,33.5808991,-7.637798,,,,,,OSM,osm,https://www.openstreetmap.org/node/2916737109,0.72,False,fast_food,
osm_node_2916737110,Snack Moumni,,,food,fast_food,,,33.5809483,-7.6377229,,,,,,OSM,osm,https://www.openstreetmap.org/node/2916737110,0.72,False,fast_food,
osm_node_2916737112,Café Anfa,,,food,cafe,,,33.5813192,-7.6383988,,,,,,OSM,osm,https://www.openstreetmap.org/node/2916737112,0.72,False,cafe,
osm_node_2916737113,Café O'kfé,,,food,cafe,,,33.5816678,-7.6389138,,,,,,OSM,osm,https://www.openstreetmap.org/node/2916737113,0.72,False,cafe,
osm_node_2935946001,Baleno,,,food,restaurant,,,33.582573,-7.614684,,,,,,OSM,osm,https://www.openstreetmap.org/node/2935946001,0.72,False,restaurant,
osm_node_2970393167,Tex Mex,,,food,fast_food,mexican,Boulevard Al Massira Al Khadra شارع المسيرة الخضراء,33.5876523,-7.6434531,,,,,,OSM,osm,https://www.openstreetmap.org/node/2970393167,0.72,False,fast_food,
osm_node_3014635406,Café Mandela,,,food,cafe,,,33.6014368,-7.6336494,,,,,,OSM,osm,https://www.openstreetmap.org/node/3014635406,0.72,False,cafe,
osm_node_3015533903,Cups,,,food,cafe,,,33.5926384,-7.6295335,,,,,,OSM,osm,https://www.openstreetmap.org/node/3015533903,0.72,False,cafe,
osm_node_3018430921,Marjonel,,,food,cafe,,,33.5583463,-7.5604482,,,,,,OSM,osm,https://www.openstreetmap.org/node/3018430921,0.72,False,cafe,
osm_node_3094231185,,,,food,restaurant,mexican,,33.601239,-7.6360079,,,,,,OSM,osm,https://www.openstreetmap.org/node/3094231185,0.72,False,restaurant,
osm_node_3114995987,ماكدونالدز,McDonald's,ماكدونالدز,food,fast_food,burger,,33.5993306,-7.6126219,,,,,ماكدونالدز,OSM,osm,https://www.openstreetmap.org/node/3114995987,0.72,False,fast_food,
osm_node_3114995989,ستاربكس,Starbucks,ستاربكس,food,cafe,coffee_shop,,33.5995419,-7.6123798,,,,,ستاربكس,OSM,osm,https://www.openstreetmap.org/node/3114995989,0.72,False,cafe,
osm_node_3118805797,Astoria,,,food,cafe,,,33.5941874,-7.5873723,,,,,,OSM,osm,https://www.openstreetmap.org/node/3118805797,0.72,False,cafe,
osm_node_3118805799,,,,food,restaurant,,,33.5938761,-7.581693,,,,,,OSM,osm,https://www.openstreetmap.org/node/3118805799,0.72,False,restaurant,
osm_node_3118805800,Snack Lachgar,,,food,fast_food,,,33.594038,-7.5812324,,,,,,OSM,osm,https://www.openstreetmap.org/node/3118805800,0.72,False,fast_food,
osm_node_3120506230,Café Iligh,,,food,cafe,,,33.5908419,-7.5907101,,,,,,OSM,osm,https://www.openstreetmap.org/node/3120506230,0.72,False,cafe,
osm_node_3122596372,Snack chez Mostapha,,,food,fast_food,,,33.5940513,-7.5811487,,,,,,OSM,osm,https://www.openstreetmap.org/node/3122596372,0.72,False,fast_food,
osm_node_3122596373,Chez Taha,,,food,fast_food,,,33.5940283,-7.5812601,,,,,,OSM,osm,https://www.openstreetmap.org/node/3122596373,0.72,False,fast_food,
osm_node_3122596374,Snack Rajawi,,,food,fast_food,,,33.5940221,-7.58131,,,,,,OSM,osm,https://www.openstreetmap.org/node/3122596374,0.72,False,fast_food,
osm_node_3122596375,Chez Ali,,,food,fast_food,,,33.5939994,-7.581368,,,,,,OSM,osm,https://www.openstreetmap.org/node/3122596375,0.72,False,fast_food,
osm_node_3122596376,Achkid,,,food,fast_food,,,33.5940125,-7.5813312,,,,,,OSM,osm,https://www.openstreetmap.org/node/3122596376,0.72,False,fast_food,
osm_node_3122596377,Ait agadir,,,food,fast_food,,,33.5939487,-7.5815033,,,,,,OSM,osm,https://www.openstreetmap.org/node/3122596377,0.72,False,fast_food,
osm_node_3122596378,Ait toufawt,,,food,restaurant,,,33.5939034,-7.5816157,,,,,,OSM,osm,https://www.openstreetmap.org/node/3122596378,0.72,False,restaurant,
osm_node_3122596379,,,,food,cafe,,,33.593421,-7.5820873,,,,,,OSM,osm,https://www.openstreetmap.org/node/3122596379,0.72,False,cafe,
osm_node_3123832579,Wardane,,ورضان,food,cafe,,Boulevard Oued Oum Rbia,33.5569778,-7.6827368,,,,,,OSM,osm,https://www.openstreetmap.org/node/3123832579,0.72,False,cafe,
osm_node_3123881048,Babel,,,food,cafe,,,33.5557009,-7.6827946,,,,,,OSM,osm,https://www.openstreetmap.org/node/3123881048,0.72,False,cafe,
osm_node_3124571557,Snack Farah Behja,,,food,fast_food,,,33.5940156,-7.5808973,,,,,,OSM,osm,https://www.openstreetmap.org/node/3124571557,0.72,False,fast_food,
osm_node_3124724391,Vertigo,Vertigo,,food,bar,,,33.5923836,-7.6144696,,,,,,OSM,osm,https://www.openstreetmap.org/node/3124724391,0.72,False,bar,
osm_node_3125732943,La Grillardiere,,,food,restaurant,,,33.5887094,-7.628123,,,,,,OSM,osm,https://www.openstreetmap.org/node/3125732943,0.72,False,restaurant,
osm_node_3136602728,BlueBerry,BlueBerry,,food,cafe,,,33.5996574,-7.6122203,,,,,,OSM,osm,https://www.openstreetmap.org/node/3136602728,0.72,False,cafe,
osm_node_3136604729,Caféino,Caféino,,food,cafe,,,33.5994386,-7.6125072,,,,,,OSM,osm,https://www.openstreetmap.org/node/3136604729,0.72,False,cafe,
osm_node_3136604730,Segafredo,Segafredo,,food,cafe,coffee_shop,,33.5992366,-7.6127376,,,,,Segafredo,OSM,osm,https://www.openstreetmap.org/node/3136604730,0.72,False,cafe,
osm_node_3207439276,Segafredo,,,food,cafe,coffee_shop,,33.5917771,-7.627272,,,,,Segafredo,OSM,osm,https://www.openstreetmap.org/node/3207439276,0.72,False,cafe,
osm_node_3207439277,Fratelli,,,food,restaurant,,,33.5930227,-7.627037,,,,,,OSM,osm,https://www.openstreetmap.org/node/3207439277,0.72,False,restaurant,
osm_node_3207857677,La perle du liban,,,food,restaurant,,,33.5947844,-7.6282046,,,,,,OSM,osm,https://www.openstreetmap.org/node/3207857677,0.72,False,restaurant,
osm_node_3207860830,Brasserie Olympis,,,food,bar,,,33.5953459,-7.6260218,,,,,,OSM,osm,https://www.openstreetmap.org/node/3207860830,0.72,False,bar,
osm_node_3207874976,Café Glacier Rachidi,,,food,cafe,ice_cream,,33.5938662,-7.6283156,,,,,,OSM,osm,https://www.openstreetmap.org/node/3207874976,0.72,False,cafe,
osm_node_3207891880,Café Glacier de l'Oize,,,food,cafe,,,33.594726,-7.6274061,,,,,,OSM,osm,https://www.openstreetmap.org/node/3207891880,0.72,False,cafe,
osm_node_3207892236,Monsieur Brochettes,,,food,restaurant,,,33.5948135,-7.6274321,,,,,,OSM,osm,https://www.openstreetmap.org/node/3207892236,0.72,False,restaurant,
osm_node_3207893715,Café glacier Casa Anfa,,,food,cafe,,,33.5953965,-7.6263675,,,,,,OSM,osm,https://www.openstreetmap.org/node/3207893715,0.72,False,cafe,
osm_node_3207896771,Café La cabane,,,food,cafe,,,33.5955168,-7.6265613,,,,,,OSM,osm,https://www.openstreetmap.org/node/3207896771,0.72,False,cafe,
osm_node_3207896772,Restaurant King Burger,,,food,restaurant,,,33.5953217,-7.6256267,,,,,,OSM,osm,https://www.openstreetmap.org/node/3207896772,0.72,False,restaurant,
osm_node_3207898878,Café Madrid,,,food,cafe,,,33.5954404,-7.6264835,,,,,,OSM,osm,https://www.openstreetmap.org/node/3207898878,0.72,False,cafe,
osm_node_3228625028,Alegria,,,food,cafe,,Boulevard Hassan Alaoui,33.5838531,-7.5813298,,,,,,OSM,osm,https://www.openstreetmap.org/node/3228625028,0.72,False,cafe,
osm_node_3228678355,Boulangerie-Pâtisserie Amanouz,,,food,cafe,,,33.5846642,-7.5804276,,,,,,OSM,osm,https://www.openstreetmap.org/node/3228678355,0.72,False,cafe,
osm_node_3228678357,Essalam Juice,,,food,cafe,burger;pizza;pasta;sandwich;juice,,33.5852765,-7.5809747,,,,,,OSM,osm,https://www.openstreetmap.org/node/3228678357,0.72,False,cafe,
osm_node_3228699705,Clivia Ice,,,food,cafe,,,33.5853413,-7.581302,,,,,,OSM,osm,https://www.openstreetmap.org/node/3228699705,0.72,False,cafe,
osm_node_3228858219,Sunset,,,food,cafe,,,33.5941228,-7.6443566,,,,,,OSM,osm,https://www.openstreetmap.org/node/3228858219,0.72,False,cafe,
osm_node_3228861115,Le Local,,,food,cafe,,,33.5942483,-7.6434224,,,,,,OSM,osm,https://www.openstreetmap.org/node/3228861115,0.72,False,cafe,
osm_node_3228876931,Domino's,,,food,fast_food,pizza,,33.5734363,-7.6116139,,,,,Domino's,OSM,osm,https://www.openstreetmap.org/node/3228876931,0.72,False,fast_food,
osm_node_3228876933,Amiga,,,food,cafe,,,33.5741004,-7.6148563,,,,,,OSM,osm,https://www.openstreetmap.org/node/3228876933,0.72,False,cafe,
osm_node_3229636313,Café Karibo,,,food,cafe,,Boulevard Rachidi شارع الراشدي,33.5924741,-7.6254288,,,,,,OSM,osm,https://www.openstreetmap.org/node/3229636313,0.72,False,cafe,
osm_node_3229705901,Le passage,,,food,cafe,,,33.5941743,-7.6252608,,,,,,OSM,osm,https://www.openstreetmap.org/node/3229705901,0.72,False,cafe,
osm_node_3229708545,café le mirage,,,food,cafe,,,33.5938975,-7.6283639,,,,,,OSM,osm,https://www.openstreetmap.org/node/3229708545,0.72,False,cafe,
osm_node_3229722225,San mimoun,,,food,cafe,,Boulevard Rachidi,33.5936871,-7.628102,,,,,,OSM,osm,https://www.openstreetmap.org/node/3229722225,0.72,False,cafe,
osm_node_3232071361,Café saphir bleu,,,food,cafe,,,33.5945113,-7.6281082,,,,,,OSM,osm,https://www.openstreetmap.org/node/3232071361,0.72,False,cafe,
osm_node_3232074797,Lora Café Restaurant,,,food,restaurant,,,33.5943442,-7.6286229,,,,,,OSM,osm,https://www.openstreetmap.org/node/3232074797,0.72,False,cafe,
osm_node_3302460932,Restaurant West Atlantic,,,food,restaurant,,,33.5675139,-7.7095158,,,,,,OSM,osm,https://www.openstreetmap.org/node/3302460932,0.72,False,restaurant,
osm_node_3345682103,ماكدونالدز,McDonald's,ماكدونالدز,food,fast_food,burger,,33.5994718,-7.6127794,,,,,ماكدونالدز,OSM,osm,https://www.openstreetmap.org/node/3345682103,0.72,False,fast_food,
osm_node_3346714116,,,,food,restaurant,,,33.5927762,-7.6258481,,,,,,OSM,osm,https://www.openstreetmap.org/node/3346714116,0.72,False,restaurant,
osm_node_3346762456,Gaugan,,,food,cafe,pizza,,33.5927658,-7.6242626,,,,,,OSM,osm,https://www.openstreetmap.org/node/3346762456,0.72,False,cafe,
osm_node_3346778855,,,,food,restaurant,moroccan,,33.5930787,-7.6231024,,,,,,OSM,osm,https://www.openstreetmap.org/node/3346778855,0.72,False,restaurant,
osm_node_3346778856,Restaurant Rouget de l'Isle,,,food,restaurant,,,33.5926824,-7.6228688,,,,,,OSM,osm,https://www.openstreetmap.org/node/3346778856,0.72,False,restaurant,
osm_node_3359688591,Alae,,,food,restaurant,,Rue d'Alger,33.5934314,-7.6240699,,,,,,OSM,osm,https://www.openstreetmap.org/node/3359688591,0.72,False,restaurant,
osm_node_3359700068,Faraj,,,food,cafe,,,33.593897,-7.6251899,,,,,,OSM,osm,https://www.openstreetmap.org/node/3359700068,0.72,False,cafe,
osm_node_3359700945,Kalinka,,,food,restaurant,,,33.5942124,-7.6249351,,,,,,OSM,osm,https://www.openstreetmap.org/node/3359700945,0.72,False,restaurant,
osm_node_3359763591,12 Cool,,,food,restaurant,,,33.5930752,-7.6271159,,,,,,OSM,osm,https://www.openstreetmap.org/node/3359763591,0.72,False,restaurant,
osm_node_3359785189,Bistronome,,,food,restaurant,,,33.5930876,-7.6267545,,,,,,OSM,osm,https://www.openstreetmap.org/node/3359785189,0.72,False,restaurant,
osm_node_3359789893,Rachidi,,,food,cafe,,,33.5930352,-7.6266798,,,,,,OSM,osm,https://www.openstreetmap.org/node/3359789893,0.72,False,cafe,
osm_node_3362739422,Café Lkarma,,,food,cafe,,,33.5148297,-7.6557369,,,,,,OSM,osm,https://www.openstreetmap.org/node/3362739422,0.72,False,cafe,
osm_node_3391107993,Oukaimeden,,,food,restaurant,,Boulevard du 11 Janvier,33.5911393,-7.6150735,,,,,,OSM,osm,https://www.openstreetmap.org/node/3391107993,0.72,False,restaurant,
osm_node_3472810370,Café De France,,,food,cafe,,,33.5954385,-7.617482,,,,,,OSM,osm,https://www.openstreetmap.org/node/3472810370,0.72,False,cafe,
osm_node_3472843949,ماكدونالدز,,ماكدونالدز,food,fast_food,burger,,33.5955437,-7.6173451,,,,,ماكدونالدز,OSM,osm,https://www.openstreetmap.org/node/3472843949,0.72,False,fast_food,
osm_node_3472843950,KFC,KFC,دجاج كنتاكي,food,fast_food,chicken,,33.595602,-7.6174129,,,Mo-Su 11:00-01:00,,KFC,OSM,osm,https://www.openstreetmap.org/node/3472843950,0.72,False,fast_food,
osm_node_3472846043,Le Cardinal,,,food,restaurant,,,33.5956364,-7.6171591,,,,,,OSM,osm,https://www.openstreetmap.org/node/3472846043,0.72,False,restaurant,
osm_node_3484648826,Snack Addou Maddou,,,food,restaurant,,,33.5932039,-7.6186518,,,,,,OSM,osm,https://www.openstreetmap.org/node/3484648826,0.72,False,restaurant,
osm_node_3484648827,Restaurant les Arcades,,,food,restaurant,,,33.5935525,-7.6185955,,,,,,OSM,osm,https://www.openstreetmap.org/node/3484648827,0.72,False,restaurant,
osm_node_3484702219,Café Odissea,,,food,cafe,,,33.5940836,-7.6183033,,,,,,OSM,osm,https://www.openstreetmap.org/node/3484702219,0.72,False,cafe,
osm_node_3484738836,Café Vogue,,,food,cafe,,,33.5945042,-7.6183755,,,,,,OSM,osm,https://www.openstreetmap.org/node/3484738836,0.72,False,cafe,
osm_node_3506036268,Euro Snack,,,food,fast_food,,,33.5944851,-7.6183927,,,,,,OSM,osm,https://www.openstreetmap.org/node/3506036268,0.72,False,fast_food,
osm_node_3519550285,La Taverne du Dauphin,La Taverne du Dauphin,,food,restaurant,,,33.598736,-7.6151053,,,,,,OSM,osm,https://www.openstreetmap.org/node/3519550285,0.72,False,restaurant,
osm_node_3534468102,Total طوطال,Total,طوطال,food,cafe,pizza,,33.5152721,-7.6553456,,,,طوطال,طوطال,OSM,osm,https://www.openstreetmap.org/node/3534468102,0.72,False,cafe,
osm_node_3590402951,الخيمة,,الخيمة,food,fast_food,pizza,,33.5501035,-7.5808439,,,,,,OSM,osm,https://www.openstreetmap.org/node/3590402951,0.72,False,fast_food,
osm_node_3590412054,,,,food,cafe,,,33.5516288,-7.5880864,,,,,,OSM,osm,https://www.openstreetmap.org/node/3590412054,0.72,False,cafe,
osm_node_3633688599,Little Barton's,,,food,restaurant,american,,33.5997377,-7.6650484,,,,,,OSM,osm,https://www.openstreetmap.org/node/3633688599,0.72,False,restaurant,
osm_node_3659545533,Shawarmer,,,food,fast_food,,,33.5814102,-7.6392523,,,,,,OSM,osm,https://www.openstreetmap.org/node/3659545533,0.72,False,fast_food,
osm_node_3770735160,L'étudiant,,,food,cafe,,,33.5664433,-7.5429261,,,,,,OSM,osm,https://www.openstreetmap.org/node/3770735160,0.72,False,cafe,
osm_node_3770737158,Casa José,,,food,restaurant,regional,,33.5978725,-7.615386,,,,,,OSM,osm,https://www.openstreetmap.org/node/3770737158,0.72,False,restaurant,
osm_node_3907189069,Landoud Madjine ⵍⵓⵏⴹⵓⵏ ⵎⵥⵥⵉⵏ لنضون مجين,Landoud Madjine,لنضون مجين,food,cafe,soft_drinks;coffee_shop;tea,,33.5609838,-7.6704245,,,,,,OSM,osm,https://www.openstreetmap.org/node/3907189069,0.72,False,cafe,
osm_node_3907190258,Café Kasmou ⴽⵓⵚⵎⵓ مقهى كصمو,Café Kasmou,مقهى كصمو,food,cafe,,,33.5602328,-7.670564,,,,,,OSM,osm,https://www.openstreetmap.org/node/3907190258,0.72,False,cafe,
osm_node_3907197006,Porte Mansour ⴱⴰⴱ ⵎⵏⵚⵓⵕ باب منصور,Porte Mansour,باب منصور,food,restaurant,,,33.5592404,-7.6699846,,,,,,OSM,osm,https://www.openstreetmap.org/node/3907197006,0.72,False,restaurant,
osm_node_3960660005,Le Lys,,,food,cafe,,,33.5914444,-7.594961,,,Mo-Su 07:00-23:00,,,OSM,osm,https://www.openstreetmap.org/node/3960660005,0.72,False,cafe,
osm_node_3980994158,Tacos de Lyon,,,food,restaurant,burger,,33.6007185,-7.6341062,,,,,,OSM,osm,https://www.openstreetmap.org/node/3980994158,0.72,False,restaurant,
osm_node_3982848837,Face Cafe,,,food,cafe,,,33.6006767,-7.635819,,,,,,OSM,osm,https://www.openstreetmap.org/node/3982848837,0.72,False,cafe,
osm_node_3982848838,,,,food,fast_food,,,33.6010327,-7.6359116,,,,,,OSM,osm,https://www.openstreetmap.org/node/3982848838,0.72,False,fast_food,
osm_node_3984458480,The voice,,,food,cafe,,,33.5635411,-7.5568378,,,,,,OSM,osm,https://www.openstreetmap.org/node/3984458480,0.72,False,cafe,
osm_node_4069200421,,,,food,cafe,,,33.5970886,-7.635439,,,,,,OSM,osm,https://www.openstreetmap.org/node/4069200421,0.72,False,cafe,
osm_node_4100233490,Bistrot Chic,,,food,restaurant,,,33.5884913,-7.6273923,,,,,,OSM,osm,https://www.openstreetmap.org/node/4100233490,0.72,False,restaurant,
osm_node_4100238890,Belle d'Anfa,,,food,cafe,,,33.5896085,-7.6276965,,,"PH,Mo-Su 07:00-22:00",,,OSM,osm,https://www.openstreetmap.org/node/4100238890,0.72,False,cafe,
osm_node_4100238989,Salsa,,,food,fast_food,mexican,Rue Taha Hussein,33.5887791,-7.6282292,,,,,,OSM,osm,https://www.openstreetmap.org/node/4100238989,0.72,False,fast_food,
osm_node_4100239189,Sojou,,,food,restaurant,sandwich,,33.589095,-7.6297476,,https://sojou.ma,,,,OSM,osm,https://www.openstreetmap.org/node/4100239189,0.72,False,restaurant,
osm_node_4100382627,L'Artiste,,,food,bar,,,33.5903665,-7.6287154,,,,,,OSM,osm,https://www.openstreetmap.org/node/4100382627,0.72,False,bar,
osm_node_4100382628,Blend,,,food,restaurant,burger,Rue Théophile Gauthier,33.5886833,-7.6319196,+212 5 22 49 11 22,,,,,OSM,osm,https://www.openstreetmap.org/node/4100382628,0.72,False,restaurant,
osm_node_4100382708,Le Yeel's,,,food,cafe,,,33.5900878,-7.6303874,,,,,,OSM,osm,https://www.openstreetmap.org/node/4100382708,0.72,False,cafe,
osm_node_4106115790,,,,food,fast_food,,,33.5926821,-7.594293,,,Mo-Su 07:00-22:00,,,OSM,osm,https://www.openstreetmap.org/node/4106115790,0.72,False,fast_food,
osm_node_4190920174,Khos,,,food,restaurant,,Rue Saad Ben Abi Waqqas,33.5840347,-7.6205679,,,,,,OSM,osm,https://www.openstreetmap.org/node/4190920174,0.72,False,restaurant,
osm_node_4193490393,astoria,,,food,cafe,,,33.5962813,-7.6168974,,,,,,OSM,osm,https://www.openstreetmap.org/node/4193490393,0.72,False,cafe,
osm_node_4193523916,Chez Moi,Chez Moi,,food,fast_food,burger;kebab,,33.5948807,-7.6152623,,,,,,OSM,osm,https://www.openstreetmap.org/node/4193523916,0.72,False,fast_food,
osm_node_4193531501,,,,food,fast_food,,,33.5974687,-7.6162533,+212 5 22 26 74 98,,,,,OSM,osm,https://www.openstreetmap.org/node/4193531501,0.72,False,fast_food,
osm_node_4193540594,brasserie san jose,,,food,restaurant,,,33.5978396,-7.6155008,,,,,,OSM,osm,https://www.openstreetmap.org/node/4193540594,0.72,False,restaurant,
osm_node_4193546290,La Chope,,,food,cafe,,,33.5942999,-7.6164602,,,,,,OSM,osm,https://www.openstreetmap.org/node/4193546290,0.72,False,cafe,
osm_node_4193547789,Don Quichotte,Don Quichotte,,food,cafe,,,33.5970492,-7.6163612,,,,,,OSM,osm,https://www.openstreetmap.org/node/4193547789,0.72,False,cafe,
osm_node_4193550289,isis,,,food,cafe,,,33.5950092,-7.6173804,,,,,,OSM,osm,https://www.openstreetmap.org/node/4193550289,0.72,False,cafe,
osm_node_4193550589,Pita Mix,,,food,fast_food,burger,,33.5948491,-7.617455,,,,,,OSM,osm,https://www.openstreetmap.org/node/4193550589,0.72,False,fast_food,
osm_node_4193550689,Eden Ice,,,food,cafe,,,33.5947705,-7.6170384,,,,,,OSM,osm,https://www.openstreetmap.org/node/4193550689,0.72,False,cafe,
osm_node_4193560494,bazar touristes,,,food,fast_food,,,33.598505,-7.6151557,,,,,,OSM,osm,https://www.openstreetmap.org/node/4193560494,0.72,False,fast_food,gift
osm_node_4193561094,Le Maroc,Le Maroc,المغرب,food,cafe,,,33.5999428,-7.6140803,,,,,,OSM,osm,https://www.openstreetmap.org/node/4193561094,0.72,False,cafe,
osm_node_4193564102,Montréal,Montréal,,food,cafe,,,33.5945485,-7.6155381,,,,,,OSM,osm,https://www.openstreetmap.org/node/4193564102,0.72,False,cafe,
osm_node_4193565496,Poulet AFC,Poulet AFC,,food,fast_food,,,33.5942483,-7.6156179,,,,,,OSM,osm,https://www.openstreetmap.org/node/4193565496,0.72,False,fast_food,
osm_node_4193565597,Nasma,Nasma,,food,cafe,,,33.5945946,-7.6157947,,,,,,OSM,osm,https://www.openstreetmap.org/node/4193565597,0.72,False,cafe,
osm_node_4193565894,La Petite Perle,La Petite Perle,,food,cafe,,,33.594108,-7.6156948,,,,,,OSM,osm,https://www.openstreetmap.org/node/4193565894,0.72,False,cafe,
osm_node_4193565968,Au Clair de Lune,Au Clair de Lune,,food,cafe,,,33.5944909,-7.6134185,,,,,,OSM,osm,https://www.openstreetmap.org/node/4193565968,0.72,False,cafe,
osm_node_4193588837,Asia,Asia,,food,restaurant,,,33.5991745,-7.6130528,,,,,,OSM,osm,https://www.openstreetmap.org/node/4193588837,0.72,False,restaurant,
osm_node_4193588838,Caza Ameal,,,food,cafe,,,33.5952468,-7.616121,,,,,,OSM,osm,https://www.openstreetmap.org/node/4193588838,0.72,False,cafe,
osm_node_4193589236,Ôgi Souchi,Ôgi Souchi,,food,restaurant,,,33.599424,-7.6141726,,,,,,OSM,osm,https://www.openstreetmap.org/node/4193589236,0.72,False,restaurant,
osm_node_4193590348,El Barocco Time,,,food,restaurant,,,33.5954492,-7.6163427,,,,,,OSM,osm,https://www.openstreetmap.org/node/4193590348,0.72,False,restaurant,
osm_node_4193590413,agarta,,,food,cafe,,,33.5987015,-7.6149462,,,,,,OSM,osm,https://www.openstreetmap.org/node/4193590413,0.72,False,cafe,
osm_node_4193591015,Big Star,Big Star,,food,fast_food,,,33.5951835,-7.6150805,,,,,,OSM,osm,https://www.openstreetmap.org/node/4193591015,0.72,False,fast_food,
osm_node_4193618217,Café Lurizia,,,food,cafe,,,33.5635742,-7.674377,,,,,,OSM,osm,https://www.openstreetmap.org/node/4193618217,0.72,False,cafe,
osm_node_4193668389,Petit Poucet,Petit Poucet,,food,bar,,,33.5948276,-7.6141823,,,,,,OSM,osm,https://www.openstreetmap.org/node/4193668389,0.72,False,bar,
osm_node_4194213367,Café Glacier EGO,,,food,cafe,,Rue Zerhoune,33.5849588,-7.61423,,,,,,OSM,osm,https://www.openstreetmap.org/node/4194213367,0.72,False,cafe,
osm_node_4202029389,Le Pilotis,,,food,restaurant,,Boulevard de la Corniche,33.596662,-7.6734143,,,,,,OSM,osm,https://www.openstreetmap.org/node/4202029389,0.72,False,restaurant,
osm_node_4202641897,Café Bybal,,,food,cafe,,Zanqat 12,33.5646373,-7.6741411,,,,,,OSM,osm,https://www.openstreetmap.org/node/4202641897,0.72,False,cafe,
osm_node_4202642493,Café Free Times,,,food,cafe,,,33.5669433,-7.6729512,,,,,,OSM,osm,https://www.openstreetmap.org/node/4202642493,0.72,False,cafe,
osm_node_4205782255,Cafe May,,,food,cafe,,Rue d'Arcachon,33.5859992,-7.6045843,,,,,,OSM,osm,https://www.openstreetmap.org/node/4205782255,0.72,False,cafe,
osm_node_4221347649,Café de l'Arrivée,,,food,cafe,,,33.5896275,-7.5920967,,,,,,OSM,osm,https://www.openstreetmap.org/node/4221347649,0.72,False,cafe,
osm_node_4221347653,Restaurant de la Place / Le Voyageur,,,food,restaurant,,,33.5897214,-7.592208,,,,,,OSM,osm,https://www.openstreetmap.org/node/4221347653,0.72,False,restaurant,
osm_node_4221347654,Snack Le Départ,,,food,fast_food,,,33.5896722,-7.5921423,,,,,,OSM,osm,https://www.openstreetmap.org/node/4221347654,0.72,False,fast_food,
osm_node_4225325199,Brasserie St-Georges,,,food,bar,,Rue Hadj Omar Riffi,33.5860215,-7.6143611,,,,,,OSM,osm,https://www.openstreetmap.org/node/4225325199,0.72,False,bar,
osm_node_4225325200,Café Dubois,,,food,cafe,,Rue Nouakchout,33.5876158,-7.6138836,,,,,,OSM,osm,https://www.openstreetmap.org/node/4225325200,0.72,False,cafe,
osm_node_4225325201,Café Yasmina,,,food,cafe,,Boulevard d'Alsace,33.5856704,-7.6133866,,,,,,OSM,osm,https://www.openstreetmap.org/node/4225325201,0.72,False,cafe,
osm_node_4225325211,Jus Rosenheim,,,food,cafe,,,33.5857277,-7.6119478,,,,,,OSM,osm,https://www.openstreetmap.org/node/4225325211,0.72,False,cafe,
osm_node_4225325212,L'Auto,,,food,bar,,,33.5894328,-7.6151456,,,,,,OSM,osm,https://www.openstreetmap.org/node/4225325212,0.72,False,bar,
osm_node_4225325213,La Colina,,,food,cafe,,,33.588729,-7.6162319,,,,,,OSM,osm,https://www.openstreetmap.org/node/4225325213,0.72,False,cafe,
osm_node_4225325214,La Ferme Blanche,,,food,bar,,Rue Nouakchout,33.5859735,-7.6133847,,,,,,OSM,osm,https://www.openstreetmap.org/node/4225325214,0.72,False,bar,
osm_node_4225325216,La Perle Blanche,,,food,cafe,,Boulevard de la Liberté,33.5860749,-7.6114696,,,,,,OSM,osm,https://www.openstreetmap.org/node/4225325216,0.72,False,cafe,
osm_node_4225325219,Les Gémaux,,,food,cafe,,Boulevard de la Liberté,33.5871751,-7.6120277,,,,,,OSM,osm,https://www.openstreetmap.org/node/4225325219,0.72,False,cafe,
osm_node_4225325221,Ma Touraine,,,food,bar,,Rue Hadj Omar Riffi,33.5864349,-7.6150545,,,,,,OSM,osm,https://www.openstreetmap.org/node/4225325221,0.72,False,bar,
osm_node_4225325229,Puerto Rico,,,food,restaurant,,,33.5896015,-7.6149002,,,,,,OSM,osm,https://www.openstreetmap.org/node/4225325229,0.72,False,restaurant,
osm_node_4225325238,,,,food,fast_food,kebab,Boulevard de la Liberté,33.584881,-7.6109069,,,,,,OSM,osm,https://www.openstreetmap.org/node/4225325238,0.72,False,fast_food,
osm_node_4225325239,,,,food,cafe,,Boulevard de la Liberté,33.5849083,-7.6109257,,,,,,OSM,osm,https://www.openstreetmap.org/node/4225325239,0.72,False,cafe,
osm_node_4225325248,,,,food,fast_food,,Boulevard d'Alsace,33.5857233,-7.611442,,,,,,OSM,osm,https://www.openstreetmap.org/node/4225325248,0.72,False,fast_food,
osm_node_4225325249,,,,food,fast_food,,Boulevard d'Alsace,33.5857267,-7.6113568,,,,,,OSM,osm,https://www.openstreetmap.org/node/4225325249,0.72,False,fast_food,
osm_node_4225325265,,,,food,cafe,,Boulevard d'Alsace,33.5858704,-7.6114546,,,,,,OSM,osm,https://www.openstreetmap.org/node/4225325265,0.72,False,cafe,
osm_node_4225325269,Paseo Pizza & Grill,,,food,fast_food,,Boulevard de la Liberté,33.5872685,-7.6120735,,,,,,OSM,osm,https://www.openstreetmap.org/node/4225325269,0.72,False,fast_food,
osm_node_4225325270,,,,food,cafe,,Boulevard de la Liberté,33.5875331,-7.6122448,,,,,,OSM,osm,https://www.openstreetmap.org/node/4225325270,0.72,False,cafe,
osm_node_4225325271,,,,food,bar,,,33.5880598,-7.615788,,,,,,OSM,osm,https://www.openstreetmap.org/node/4225325271,0.72,False,bar,
osm_node_4225325276,,,,food,cafe,,Boulevard du 11 Janvier,33.5884774,-7.6127839,,,,,,OSM,osm,https://www.openstreetmap.org/node/4225325276,0.72,False,cafe,
osm_node_4225325280,Angad Restaurant & Bar,,,food,restaurant,,Boulevard du 11 Janvier شارع 11 يناير,33.5888647,-7.6132024,,,,,,OSM,osm,https://www.openstreetmap.org/node/4225325280,0.72,False,bar,
osm_node_4231057789,Martello,,,food,cafe,,Boulevard Mohamed Zerktouni,33.5827185,-7.6174892,+212 5 22 47 08 28,,,,,OSM,osm,https://www.openstreetmap.org/node/4231057789,0.72,False,cafe,
osm_node_4232899411,Awafi,,,food,restaurant,,Boulevard de Paris,33.5916822,-7.6149169,,,,,,OSM,osm,https://www.openstreetmap.org/node/4232899411,0.72,False,restaurant,
osm_node_4232899414,Café O'Joe,,,food,cafe,,,33.594084,-7.6131607,,,,,,OSM,osm,https://www.openstreetmap.org/node/4232899414,0.72,False,cafe,
osm_node_4232899417,,,,food,cafe,,,33.5942571,-7.6124982,,,,,,OSM,osm,https://www.openstreetmap.org/node/4232899417,0.72,False,cafe,
osm_node_4232903232,Café Jasmine,Café Jasmine,,food,cafe,,Rue de Karachi,33.592787,-7.6062993,,,,,,OSM,osm,https://www.openstreetmap.org/node/4232903232,0.72,False,cafe,
osm_node_4239813391,Pomme de Pain Ziraoui,,,food,restaurant,french;coffee_shop;bagel;ice_cream;crepe,,33.5936551,-7.6352553,,,,,,OSM,osm,https://www.openstreetmap.org/node/4239813391,0.72,False,restaurant,
osm_node_4265807606,La Bavaroise,,,food,restaurant,,,33.5952135,-7.6113257,,,,,,OSM,osm,https://www.openstreetmap.org/node/4265807606,0.72,False,restaurant,
osm_node_4303094793,Al Anbar العنبر,Al Anbar,العنبر,food,cafe,,Avenue Mohamed Taib Naciri,33.5489722,-7.67964,,,Mo-Su 06:00-22:00,,,OSM,osm,https://www.openstreetmap.org/node/4303094793,0.72,False,cafe,
osm_node_4320672213,Restaurant Le Nouveau Dragon,Restaurant Le Nouveau Dragon,,food,restaurant,chinese,Rue de la Chaouia,33.5956652,-7.6125814,+212 5 22 45 08 96,,Mo-Su 10:00-22:00,,,OSM,osm,https://www.openstreetmap.org/node/4320672213,0.72,False,restaurant,
osm_node_4326915254,Café Bravo,,,food,cafe,,,33.6143776,-7.4888131,,,,,,OSM,osm,https://www.openstreetmap.org/node/4326915254,0.72,False,cafe,
osm_node_4326922063,Snack Pizzeria Bella Maria,,,food,restaurant,pizza,,33.6155331,-7.4843667,,,,,,OSM,osm,https://www.openstreetmap.org/node/4326922063,0.72,False,restaurant,
osm_node_4326939034,Café Africana,,,food,cafe,,,33.6202172,-7.4872601,,,,,,OSM,osm,https://www.openstreetmap.org/node/4326939034,0.72,False,cafe,
osm_node_4345781503,PA-NOS,,,food,cafe,regional;pizza;burger;cafe;snack,"Rue El KASR, Maarif",33.5860673,-7.6311157,,,,PANOS,,OSM,osm,https://www.openstreetmap.org/node/4345781503,0.72,False,fast_food,
osm_node_4347753998,Ghiwan,,,food,cafe,,,33.538861,-7.6796506,,,Mo-Su 07:00-22:00,,,OSM,osm,https://www.openstreetmap.org/node/4347753998,0.72,False,cafe,
osm_node_4347921689,Café Auriga,,,food,cafe,,,33.5837539,-7.6437214,,,Mo-Su 07:00-22:00,,,OSM,osm,https://www.openstreetmap.org/node/4347921689,0.72,False,cafe,
osm_node_4353998489,Misbah Salam,,,food,fast_food,cake;local;sandwich;moroccan;breakfast;bagel;pizza,,33.5918899,-7.6159496,,,,,,OSM,osm,https://www.openstreetmap.org/node/4353998489,0.72,False,fast_food,
osm_node_4355971289,,,,food,restaurant,,Boulevard Mohamed Zerktouni,33.5835849,-7.62396,,,,,,OSM,osm,https://www.openstreetmap.org/node/4355971289,0.72,False,restaurant,
osm_node_4359910090,leopardi ليوباردي,leopardi,ليوباردي,food,cafe,,Boulevard Oued Sebou,33.551528,-7.6817191,,,Mo-Su 08:00-23:00,,,OSM,osm,https://www.openstreetmap.org/node/4359910090,0.72,False,cafe,
osm_node_4363244491,snack aljanoub سناك الجنوب,snack aljanoub,سناك الجنوب,food,fast_food,turkish;burger;hot_dog;kebab;sandwich;sausage,,33.5508438,-7.6840863,,,Mo-Su 11:00-24:00,,,OSM,osm,https://www.openstreetmap.org/node/4363244491,0.72,False,fast_food,
osm_node_4367045889,Burger King,burger king,برگر كينغ,food,fast_food,burger,Rue Abou Assalt Andaloussi زنقة أبو السلط الأندلسي,33.5858234,-7.6369238,,,Mo-Su 10:00-22:00,Burger king,Burger King,OSM,osm,https://www.openstreetmap.org/node/4367045889,0.72,False,fast_food,
osm_node_4368517198,nafoura النافورة,nafoura,النافورة,food,cafe,,,33.5467357,-7.6815776,,,Mo-Su 07:00-23:00,,,OSM,osm,https://www.openstreetmap.org/node/4368517198,0.72,False,cafe,
osm_node_4368562693,pizzeria chahdia بيتزيريا الشهدية,pizzeria chahdia,بيتزيريا الشهدية,food,fast_food,pizza;sandwich,,33.5469052,-7.6818002,,,Mo-Su 10:00-23:00,,,OSM,osm,https://www.openstreetmap.org/node/4368562693,0.72,False,fast_food,
osm_node_4368562695,amira أميرة,amira,أميرة,food,fast_food,,,33.5465427,-7.6818691,,,,,,OSM,osm,https://www.openstreetmap.org/node/4368562695,0.72,False,fast_food,
osm_node_4368839694,McDonald's,McDonald's,مكدونالدز,food,fast_food,burger,Boulevard Mohamed VI,33.5623474,-7.5941062,,,,,McDonald's,OSM,osm,https://www.openstreetmap.org/node/4368839694,0.72,False,fast_food,
osm_node_4385036679,Carrefour des Saveurs,,,food,restaurant,,,33.595159,-7.5913872,,,,,,OSM,osm,https://www.openstreetmap.org/node/4385036679,0.72,False,restaurant,
osm_node_4387012191,,,,food,restaurant,,,33.589393,-7.6315688,,,,,,OSM,osm,https://www.openstreetmap.org/node/4387012191,0.72,False,restaurant,
osm_node_4387433586,,,,food,cafe,,,33.6001046,-7.6344252,,,,,,OSM,osm,https://www.openstreetmap.org/node/4387433586,0.72,False,cafe,
osm_node_4392185373,,,,food,ice_cream,,,33.6006982,-7.6360779,,,,,,OSM,osm,https://www.openstreetmap.org/node/4392185373,0.72,False,ice_cream,
osm_node_4395791989,Espace Tifawine,,,food,restaurant,,,33.5861039,-7.6489235,,,Mo-Su 06:00-23:00,,,OSM,osm,https://www.openstreetmap.org/node/4395791989,0.72,False,restaurant,
osm_node_4424918399,Café Romantique,Café Romantique,,food,cafe,,,33.5740209,-7.5819074,,,,,,OSM,osm,https://www.openstreetmap.org/node/4424918399,0.72,False,cafe,
osm_node_4425377492,Pizzeria starpate,Pizzeria starpate,,food,fast_food,,,33.6042711,-7.4918255,,,,,,OSM,osm,https://www.openstreetmap.org/node/4425377492,0.72,False,fast_food,
osm_node_4434535428,Zineb,,,food,cafe,,,33.6007115,-7.6332406,,,,,,OSM,osm,https://www.openstreetmap.org/node/4434535428,0.72,False,cafe,
osm_node_4438781291,ستاربكس,,ستاربكس,food,cafe,coffee_shop,Boulevard de la Corniche,33.5981399,-7.6647762,,,,,ستاربكس,OSM,osm,https://www.openstreetmap.org/node/4438781291,0.72,False,cafe,
osm_node_4438842189,ستاربكس,Starbucks,ستاربكس,food,cafe,coffee_shop,,33.576784,-7.7059305,,,,,ستاربكس,OSM,osm,https://www.openstreetmap.org/node/4438842189,0.72,False,cafe,
osm_node_4438876139,La Storia,,,food,restaurant,,Boulevard Kennedy شارع كينيدي,33.5946859,-7.6679576,,,,,,OSM,osm,https://www.openstreetmap.org/node/4438876139,0.72,False,restaurant,
osm_node_4440218989,Paul,,,food,cafe,,Boulevard de la Corniche شارع الكورنيش,33.598856,-7.6644368,,,,,Paul,OSM,osm,https://www.openstreetmap.org/node/4440218989,0.72,False,cafe,bakery
osm_node_4440218990,Costa,,,food,cafe,coffee_shop,Boulevard de la Corniche,33.5984634,-7.6645137,,,,,Costa,OSM,osm,https://www.openstreetmap.org/node/4440218990,0.72,False,cafe,
osm_node_4441379090,La bel blanc,La bel blanc,,food,fast_food,sandwich,Rue oulad teima,33.5973686,-7.6363743,+212 6 67 31 39 95,,Mo-Sa 10:00-23:00; Su,IAM,,OSM,osm,https://www.openstreetmap.org/node/4441379090,0.72,False,fast_food,
osm_node_4446842589,Topkapi Hammams & Spa,,,food,bar,,,33.5922017,-7.6441665,+212 5 22 94 67 03,,,,,OSM,osm,https://www.openstreetmap.org/node/4446842589,0.72,False,public_bath,
osm_node_4467489591,Diamant bleu الجوهرة الزرقاء,Diamant bleu,الجوهرة الزرقاء,food,cafe,tea;soba;pancake;coffee_shop,Boulevard Oued Sebou,33.5514099,-7.6821065,+212 5 22 89 91 34,,24/7,,,OSM,osm,https://www.openstreetmap.org/node/4467489591,0.72,False,cafe,
osm_node_4469841890,O'lichi,O'lichi,,food,restaurant,asian,Boulevard d'Anfa,33.591863,-7.6345249,,,,,,OSM,osm,https://www.openstreetmap.org/node/4469841890,0.72,False,restaurant,
osm_node_4497659489,Al-Mounia,,,food,restaurant,moroccan,,33.5909223,-7.6164407,,,,,,OSM,osm,https://www.openstreetmap.org/node/4497659489,0.72,False,restaurant,
osm_node_4497664315,,,,food,restaurant,,,33.6011409,-7.6602991,,,,,,OSM,osm,https://www.openstreetmap.org/node/4497664315,0.72,False,restaurant,
osm_node_4501916393,,,,food,cafe,,,33.6014699,-7.6605284,,,,,,OSM,osm,https://www.openstreetmap.org/node/4501916393,0.72,False,cafe,
osm_node_4511695590,La Cantine de Charlotte,La Cantine de Charlotte,,food,restaurant,,Rue Abou Hadil Allaf,33.5921096,-7.6288039,,,,,,OSM,osm,https://www.openstreetmap.org/node/4511695590,0.72,False,restaurant,
osm_node_4514031190,Emilia,Emilia,,food,cafe,,Avenue Mohamed Taib Naciri,33.5481455,-7.6808525,+212 6 28 99 08 08,,Mo-Su 07:00-23:00,,,OSM,osm,https://www.openstreetmap.org/node/4514031190,0.72,False,cafe,
osm_node_4540851789,Rouge et Blanc أحمر و ابيض,Rouge et Blanc,أحمر و ابيض,food,restaurant,barbecue,Avenue Lalla Yacout,33.5915512,-7.615164,+212 679793649,,24/7,,,OSM,osm,https://www.openstreetmap.org/node/4540851789,0.72,False,restaurant,
osm_node_4553971889,Route 66,,,food,restaurant,,,33.5728964,-7.6552882,,,,,,OSM,osm,https://www.openstreetmap.org/node/4553971889,0.72,False,restaurant,
osm_node_4557148590,Cosa Mia,,,food,restaurant,,,33.585652,-7.6355809,,,,,,OSM,osm,https://www.openstreetmap.org/node/4557148590,0.72,False,restaurant,
osm_node_4575672894,la lambra العنبرة,la lambra,العنبرة,food,cafe,,,33.5993093,-7.5205074,,,,,,OSM,osm,https://www.openstreetmap.org/node/4575672894,0.72,False,cafe,
osm_node_4581255590,very ڤيري,very,ڤيري,food,cafe,,,33.603415,-7.6425831,,,Mo-Su 08:00-22:00,,,OSM,osm,https://www.openstreetmap.org/node/4581255590,0.72,False,cafe,
osm_node_4584173699,Fadaa bladi فضاء بلادي,Fadaa bladi,فضاء بلادي,food,cafe,,Route Haj Fateh,33.5442269,-7.6787862,,,,,,OSM,osm,https://www.openstreetmap.org/node/4584173699,0.72,False,cafe,
osm_node_4589036349,Pizza Hut,Pizza Hut,,food,restaurant,pizza,,33.5962863,-7.6144369,,,,,Pizza Hut,OSM,osm,https://www.openstreetmap.org/node/4589036349,0.72,False,restaurant,
osm_node_4590448491,les Fleurs,,,food,restaurant,,,33.5966374,-7.6149916,,,,,,OSM,osm,https://www.openstreetmap.org/node/4590448491,0.72,False,restaurant,
osm_node_4599762890,le Châtelet,,,food,cafe,,,33.586116,-7.6350081,,,,,,OSM,osm,https://www.openstreetmap.org/node/4599762890,0.72,False,cafe,
osm_node_4674572890,Midway,,,food,restaurant,,,33.588864,-7.628391,,,,,,OSM,osm,https://www.openstreetmap.org/node/4674572890,0.72,False,restaurant,
osm_node_4696518892,Café Fairplay,,,food,cafe,tea;breakfast;coffee_shop,Boulevard Mohamed Zerktouni,33.5973188,-7.6382518,,,Mo-Su 06:00-23:00,,,OSM,osm,https://www.openstreetmap.org/node/4696518892,0.72,False,cafe,
osm_node_4713278692,Yo Ti Tam,,,food,restaurant,asian,Rue jounaid,33.5759859,-7.6476182,+212 5 22 26 12 62,,,,Yo Ti Tam,OSM,osm,https://www.openstreetmap.org/node/4713278692,0.72,False,restaurant,
osm_node_4735312121,,,,food,cafe,,Boulevard d'Anfa,33.5926388,-7.6319683,+212 5 22 47 03 45,https://www.moodcafe.ma/,24/7,,,OSM,osm,https://www.openstreetmap.org/node/4735312121,0.72,False,cafe,
osm_node_4742853822,,,,food,cafe,,,33.6094191,-7.5333793,,,,,,OSM,osm,https://www.openstreetmap.org/node/4742853822,0.72,False,cafe,
osm_node_4749586921,Café Karima مقهى كريمة,Café Karima,مقهى كريمة,food,cafe,,Rue Amr Ben Asse,33.5996177,-7.5824027,,,,,,OSM,osm,https://www.openstreetmap.org/node/4749586921,0.72,False,cafe,
osm_node_4750308922,Croc Pizza كروك بيتزا,Croc Pizza,كروك بيتزا,food,restaurant,,,33.619789,-7.5326657,,,,,,OSM,osm,https://www.openstreetmap.org/node/4750308922,0.72,False,restaurant,
osm_node_4750308923,محطة إستراحة أفريقيا,Oasis Café Tafernout,محطة إستراحة أفريقيا,food,cafe,,,33.5110136,-7.6105863,,,,,,OSM,osm,https://www.openstreetmap.org/node/4750308923,0.72,False,cafe,
osm_node_4752753123,H & B Food,,,food,restaurant,moroccan,,33.5713686,-7.6450329,+212 540085480,,,,,OSM,osm,https://www.openstreetmap.org/node/4752753123,0.72,False,restaurant,
osm_node_4782537123,Chez Marny,,,food,restaurant,,,33.5609277,-7.6467836,,,,,,OSM,osm,https://www.openstreetmap.org/node/4782537123,0.72,False,restaurant,
osm_node_4784572923,Beverly Bakery & Cafe,,,food,cafe,,,33.5961331,-7.6416036,,,,,,OSM,osm,https://www.openstreetmap.org/node/4784572923,0.72,False,cafe,
osm_node_4786274153,Yammy,,,food,restaurant,asian,Boulevard Rahal El Meskini,33.5885241,-7.611296,,,,,,OSM,osm,https://www.openstreetmap.org/node/4786274153,0.72,False,restaurant,
osm_node_4850592421,Boca Chica,,,food,cafe,,,33.6090023,-7.6505619,,,,,,OSM,osm,https://www.openstreetmap.org/node/4850592421,0.72,False,cafe,
osm_node_4880604721,Tacos de Lyon,,,food,fast_food,french_tacos,,33.5840551,-7.6423246,,,,,,OSM,osm,https://www.openstreetmap.org/node/4880604721,0.72,False,fast_food,
osm_node_4881665024,,,,food,cafe,,,33.5961015,-7.6767353,,,,,,OSM,osm,https://www.openstreetmap.org/node/4881665024,0.72,False,cafe,
osm_node_4929296521,,,,food,restaurant,,,33.5959788,-7.6133174,,,,,,OSM,osm,https://www.openstreetmap.org/node/4929296521,0.72,False,restaurant,
osm_node_4929397821,Le Petit Rocher,Le Petit Rocher,,food,bar,,,33.6096729,-7.6514204,,,,,,OSM,osm,https://www.openstreetmap.org/node/4929397821,0.72,False,bar,
osm_node_4937330722,,,,food,restaurant,,,33.5926963,-7.6172792,,,,,,OSM,osm,https://www.openstreetmap.org/node/4937330722,0.72,False,restaurant,
osm_node_4987050041,Café Charles Dego,,,food,cafe,,,33.5436554,-7.5682412,,,,,,OSM,osm,https://www.openstreetmap.org/node/4987050041,0.72,False,cafe,
osm_node_4994852422,Snack amine,Snack amine,,food,restaurant,,,33.5766703,-7.6334533,,,,,,OSM,osm,https://www.openstreetmap.org/node/4994852422,0.72,False,restaurant,
osm_node_5011004926,Cosa Mia,,,food,restaurant,,Boulevard Ain Taoujtate عين تاوجطات,33.5942298,-7.6435836,+212 5 22 20 78 93,,Mo-Su 09:30-22:00,,Cosa Mia,OSM,osm,https://www.openstreetmap.org/node/5011004926,0.72,False,restaurant,
osm_node_5033634962,Gzoum كَزّوم,Gzoum,كَزّوم,food,restaurant,,,33.5677841,-7.5995875,,,,,,OSM,osm,https://www.openstreetmap.org/node/5033634962,0.72,False,restaurant,
osm_node_5040047777,Café Kyoto,,,food,cafe,,Avenue 2 Mars,33.5396601,-7.5997898,,,,,,OSM,osm,https://www.openstreetmap.org/node/5040047777,0.72,False,cafe,
osm_node_5055279721,,,,food,restaurant,,,33.5937929,-7.6325707,,,,,,OSM,osm,https://www.openstreetmap.org/node/5055279721,0.72,False,restaurant,
osm_node_5078277365,Café Azhar,,,food,cafe,,,33.5430671,-7.6879747,,,,,,OSM,osm,https://www.openstreetmap.org/node/5078277365,0.72,False,cafe,
osm_node_5078850006,Café Poco Loco,,,food,cafe,,,33.5733956,-7.7072231,,,,,,OSM,osm,https://www.openstreetmap.org/node/5078850006,0.72,False,cafe,
osm_node_5080964661,Café Kairaouan,,,food,cafe,,,33.5602694,-7.6753643,,,,,,OSM,osm,https://www.openstreetmap.org/node/5080964661,0.72,False,cafe,
osm_node_5083566360,Café One Love,,,food,cafe,,Boulevard du 9 Avril,33.5825944,-7.6280953,+212 522 23 1616,,,,,OSM,osm,https://www.openstreetmap.org/node/5083566360,0.72,False,cafe,
osm_node_5084135457,Burger King,,,food,fast_food,burger,Rue Ibn Rochd,33.595289,-7.6253802,,,,,Burger King,OSM,osm,https://www.openstreetmap.org/node/5084135457,0.72,False,fast_food,
osm_node_5104880328,Every Day,,,food,cafe,,Boulevard Oued Sebou,33.552273,-7.6788347,,,,,,OSM,osm,https://www.openstreetmap.org/node/5104880328,0.72,False,cafe,
osm_node_5104880329,,,,food,cafe,,,33.5521599,-7.6800534,,,,,,OSM,osm,https://www.openstreetmap.org/node/5104880329,0.72,False,cafe,
osm_node_5104919923,,,,food,fast_food,fish,,33.5529753,-7.6798787,,,,,,OSM,osm,https://www.openstreetmap.org/node/5104919923,0.72,False,fast_food,
osm_node_5104933922,San Diego,,,food,cafe,,Boulevard Oued Sebou,33.55244,-7.6782792,,,,,,OSM,osm,https://www.openstreetmap.org/node/5104933922,0.72,False,cafe,
osm_node_5104934122,,,,food,restaurant,steak_house;grill,,33.5522882,-7.6800779,,,,,,OSM,osm,https://www.openstreetmap.org/node/5104934122,0.72,False,restaurant,
osm_node_5104934421,,,,food,fast_food,,Boulevard Oued Sebou,33.55217,-7.6790707,,,,,,OSM,osm,https://www.openstreetmap.org/node/5104934421,0.72,False,fast_food,
osm_node_5105342622,Salsa,,,food,restaurant,,,33.5925128,-7.6166956,,,,,,OSM,osm,https://www.openstreetmap.org/node/5105342622,0.72,False,restaurant,
osm_node_5109328004,Café Basma,,,food,cafe,,,33.5389745,-7.5561869,,,,,,OSM,osm,https://www.openstreetmap.org/node/5109328004,0.72,False,cafe,
osm_node_5111051121,Casaforme,,,food,cafe,tea;coffee_shop,Boulevard Modibo Keita,33.5616595,-7.6119677,,,24/7,,,OSM,osm,https://www.openstreetmap.org/node/5111051121,0.72,False,cafe,
osm_node_5116286524,Kenzi Tower Hotel Sky 28,,,food,bar,,,33.5730513,-7.58981,,,,,,OSM,osm,https://www.openstreetmap.org/node/5116286524,0.72,False,bar,
osm_node_5139379923,La grillardiere,La grillardiere,,food,restaurant,,Allée des Pêchers,33.6071887,-7.5437586,,,,,,OSM,osm,https://www.openstreetmap.org/node/5139379923,0.72,False,restaurant,
osm_node_5157299823,Blanca بلانكا,Blanca,بلانكا,food,cafe,,Avenue Mohamed Taib Naciri,33.5485459,-7.6806587,,,Mo-Su 07:00-23:00,,,OSM,osm,https://www.openstreetmap.org/node/5157299823,0.72,False,cafe,
osm_node_5159127122,سناك دعاء,,سناك دعاء,food,restaurant,,Avenue du Commandant Driss Harti,33.5474032,-7.5746211,,,Mo-Su 12:00-01:00,,,OSM,osm,https://www.openstreetmap.org/node/5159127122,0.72,False,restaurant,
osm_node_5197907674,park stadium,park stadium,,food,cafe,,Boulevard Chefchaouni,33.6073661,-7.53687,,,,,,OSM,osm,https://www.openstreetmap.org/node/5197907674,0.72,False,cafe,
osm_node_5197907675,chefchaouni,chefchaouni,,food,cafe,,Boulevard Chefchaouni,33.6069768,-7.5381815,,,,,,OSM,osm,https://www.openstreetmap.org/node/5197907675,0.72,False,cafe,
osm_node_5198393435,source d'or,source d'or,,food,cafe,,,33.6057064,-7.5385639,,,,,,OSM,osm,https://www.openstreetmap.org/node/5198393435,0.72,False,cafe,
osm_node_5216977822,Class Dish Coffee Shop,,,food,restaurant,,,33.5901754,-7.630709,,,,,,OSM,osm,https://www.openstreetmap.org/node/5216977822,0.72,False,restaurant,
osm_node_5217695610,Le Crepuscule,,,food,cafe,,,33.5933207,-7.6791,,,,,,OSM,osm,https://www.openstreetmap.org/node/5217695610,0.72,False,cafe,
osm_node_5260725357,Restaurant Etoile Centrale,,,food,restaurant,,Rue Allal Ben Abdellah,33.5953324,-7.6121111,+212 5 27 01 86 25,https://www.etoilecentrale.com,,,,OSM,osm,https://www.openstreetmap.org/node/5260725357,0.72,False,restaurant,
osm_node_5268378366,Food stall,,,food,fast_food,,,33.6002212,-7.6297534,,,,,,OSM,osm,https://www.openstreetmap.org/node/5268378366,0.72,False,fast_food,
osm_node_5291505934,Hammam,,,food,bar,,,33.5748446,-7.5270453,,,,,,OSM,osm,https://www.openstreetmap.org/node/5291505934,0.72,False,public_bath,
osm_node_5314561322,,,,food,cafe,,,33.5993502,-7.6058794,,,,,,OSM,osm,https://www.openstreetmap.org/node/5314561322,0.72,False,cafe,
osm_node_5314907622,,,,food,cafe,,,33.6003791,-7.6169643,,,,,,OSM,osm,https://www.openstreetmap.org/node/5314907622,0.72,False,cafe,
osm_node_5314907623,,,,food,restaurant,,,33.6001875,-7.6173776,,,,,,OSM,osm,https://www.openstreetmap.org/node/5314907623,0.72,False,restaurant,
osm_node_5314907626,,,,food,cafe,,,33.601745,-7.6201855,,,,,,OSM,osm,https://www.openstreetmap.org/node/5314907626,0.72,False,cafe,
osm_node_5314907629,,,,food,restaurant,,,33.608568,-7.629199,,,,,,OSM,osm,https://www.openstreetmap.org/node/5314907629,0.72,False,restaurant,
osm_node_5314907633,,,,food,ice_cream,,,33.5939051,-7.6151605,,,,,,OSM,osm,https://www.openstreetmap.org/node/5314907633,0.72,False,ice_cream,
osm_node_5314907635,,,,food,bar,,,33.5927272,-7.6167396,,,,,,OSM,osm,https://www.openstreetmap.org/node/5314907635,0.72,False,pub,
osm_node_5407132537,côté d'or,côté d'or,,food,cafe,,Boulevard Abdelmoumen,33.5771392,-7.625501,,,,,,OSM,osm,https://www.openstreetmap.org/node/5407132537,0.72,False,cafe,
osm_node_5420554822,espace imossak,espace imossak,,food,cafe,,Route Alwahda,33.6098867,-7.5427429,,,,,,OSM,osm,https://www.openstreetmap.org/node/5420554822,0.72,False,cafe,
osm_node_5420576524,le monde des grillades,le monde des grillades,,food,fast_food,,,33.6093994,-7.541983,,,,,,OSM,osm,https://www.openstreetmap.org/node/5420576524,0.72,False,fast_food,
osm_node_5420577822,la paela mar,la paela mar,,food,cafe,,,33.6090344,-7.5417347,,,,,,OSM,osm,https://www.openstreetmap.org/node/5420577822,0.72,False,cafe,
osm_node_5420577827,tizi ousli,tizi ousli,,food,cafe,,,33.6065582,-7.5386788,,,,,,OSM,osm,https://www.openstreetmap.org/node/5420577827,0.72,False,cafe,
osm_node_5420578023,snack al Amal,snack al Amal,,food,fast_food,,,33.6077499,-7.5410675,,,,,,OSM,osm,https://www.openstreetmap.org/node/5420578023,0.72,False,fast_food,
osm_node_5420578721,adwak اذواق,adwak,اذواق,food,restaurant,,,33.6096078,-7.5421005,,,,,,OSM,osm,https://www.openstreetmap.org/node/5420578721,0.72,False,restaurant,
osm_node_5422276821,café mouad,café mouad,,food,cafe,,Rue Soumaya,33.5773541,-7.6268773,,,,,,OSM,osm,https://www.openstreetmap.org/node/5422276821,0.72,False,cafe,
osm_node_5422740636,La Cantine,,,food,restaurant,,,33.5352248,-7.6400077,,,,,,OSM,osm,https://www.openstreetmap.org/node/5422740636,0.72,False,restaurant,
osm_node_5424355721,taxi,taxi,,food,fast_food,,Rue Soumaya,33.5774261,-7.6267262,,,,,,OSM,osm,https://www.openstreetmap.org/node/5424355721,0.72,False,fast_food,
osm_node_5427254223,riad bladi رياض بلادي,riad bladi,رياض بلادي,food,cafe,,Boulevard Oued Daoura,33.5410743,-7.6770261,,,,,,OSM,osm,https://www.openstreetmap.org/node/5427254223,0.72,False,cafe,
osm_node_5427302023,bella festa,bella festa,,food,cafe,,,33.5412067,-7.6768273,,,,,,OSM,osm,https://www.openstreetmap.org/node/5427302023,0.72,False,cafe,
osm_node_5429240281,Café ambar,,,food,cafe,,,33.5432244,-7.6797457,,,,,,OSM,osm,https://www.openstreetmap.org/node/5429240281,0.72,False,cafe,
osm_node_5467116462,,,,food,cafe,,,33.5586653,-7.6937245,,,,,,OSM,osm,https://www.openstreetmap.org/node/5467116462,0.72,False,cafe,
osm_node_5467116464,,,,food,cafe,,,33.5602465,-7.6909179,,,,,,OSM,osm,https://www.openstreetmap.org/node/5467116464,0.72,False,cafe,
osm_node_5467116465,,,,food,cafe,,,33.5600168,-7.6909908,,,,,,OSM,osm,https://www.openstreetmap.org/node/5467116465,0.72,False,cafe,
osm_node_5467116470,,,,food,restaurant,,,33.5615795,-7.6922167,,,,,,OSM,osm,https://www.openstreetmap.org/node/5467116470,0.72,False,restaurant,
osm_node_5467116471,café rabii,,,food,cafe,,,33.5595686,-7.6903551,,,,,,OSM,osm,https://www.openstreetmap.org/node/5467116471,0.72,False,cafe,
osm_node_5493739822,Osteria,,,food,restaurant,italian;french,,33.6128314,-7.530422,,,,,,OSM,osm,https://www.openstreetmap.org/node/5493739822,0.72,False,restaurant,
osm_node_5548276072,,,,food,restaurant,moroccan;italian,Boulevard D'El Hank,33.6038507,-7.6340267,,,,,,OSM,osm,https://www.openstreetmap.org/node/5548276072,0.72,False,restaurant,
osm_node_5548276527,,,,food,restaurant,turkish,Boulevard D'El Hank,33.6037476,-7.6342259,,,,,,OSM,osm,https://www.openstreetmap.org/node/5548276527,0.72,False,restaurant,
osm_node_5561911027,KFC,KFC,دجاج كنتاكي,food,fast_food,chicken,,33.5928524,-7.6318233,,,,,KFC,OSM,osm,https://www.openstreetmap.org/node/5561911027,0.72,False,fast_food,
osm_node_5576311440,La Sala,,,food,restaurant,,Rue Aït Ba Amrane,33.593796,-7.6009733,,,,,,OSM,osm,https://www.openstreetmap.org/node/5576311440,0.72,False,restaurant,
osm_node_5577332921,,,,food,cafe,,,33.5988308,-7.6193111,,,,,,OSM,osm,https://www.openstreetmap.org/node/5577332921,0.72,False,cafe,
osm_node_5579366273,City Palace,,,food,restaurant,,Boulevard Mohamed V,33.5936446,-7.6022226,,,,,,OSM,osm,https://www.openstreetmap.org/node/5579366273,0.72,False,restaurant,
osm_node_5579479090,Adib Food,,,food,restaurant,,Boulevard de la Résistance,33.5906473,-7.6035677,,,,,,OSM,osm,https://www.openstreetmap.org/node/5579479090,0.72,False,restaurant,
osm_node_5579479112,Dragon Bleu,,,food,restaurant,,Rue Pierre Parent,33.5946578,-7.6043656,,,,,,OSM,osm,https://www.openstreetmap.org/node/5579479112,0.72,False,restaurant,
osm_node_5579516427,KFC,KFC,دجاج كنتاكي,food,fast_food,chicken,Avenue 2 Mars,33.5753667,-7.6156108,,,,,KFC,OSM,osm,https://www.openstreetmap.org/node/5579516427,0.72,False,fast_food,
osm_node_5579516436,Café,,,food,cafe,,Avenue 2 Mars,33.5771471,-7.615869,,,,,,OSM,osm,https://www.openstreetmap.org/node/5579516436,0.72,False,cafe,
osm_node_5579551208,Café Restaurant Tarfaya,,,food,restaurant,,Boulevard Bahmad,33.5894727,-7.5921448,,,,,,OSM,osm,https://www.openstreetmap.org/node/5579551208,0.72,False,restaurant,
osm_node_5579637513,Cafe 2 Mars,,,food,cafe,,Avenue 2 Mars,33.5661039,-7.6093338,,,,,,OSM,osm,https://www.openstreetmap.org/node/5579637513,0.72,False,cafe,
osm_node_5579637830,Tacos de Lyon,,,food,fast_food,,Avenue 2 Mars,33.5718335,-7.6138768,,,,,,OSM,osm,https://www.openstreetmap.org/node/5579637830,0.72,False,fast_food,
osm_node_5581263529,Cafe Clacier Dubai,,,food,restaurant,,Boulevard Mohammed VI,33.578465,-7.6001546,,,,,,OSM,osm,https://www.openstreetmap.org/node/5581263529,0.72,False,restaurant,
osm_node_5581425912,ماكدونالدز,,ماكدونالدز,food,fast_food,burger,Avenue 2 Mars,33.5759477,-7.6153091,,,,,ماكدونالدز,OSM,osm,https://www.openstreetmap.org/node/5581425912,0.72,False,fast_food,
osm_node_5581426027,Tacos Avenue,,,food,restaurant,,Avenue 2 Mars,33.5713977,-7.6131754,,,,,,OSM,osm,https://www.openstreetmap.org/node/5581426027,0.72,False,restaurant,
osm_node_5581426028,Mondial,,,food,cafe,,Avenue 2 Mars,33.5711485,-7.6130091,,,,,,OSM,osm,https://www.openstreetmap.org/node/5581426028,0.72,False,cafe,
osm_node_5581426029,Zén,,,food,restaurant,,Avenue 2 Mars,33.5703496,-7.6124807,,,,,,OSM,osm,https://www.openstreetmap.org/node/5581426029,0.72,False,restaurant,
osm_node_5581612578,Boudad,,,food,cafe,,Rue Magellan,33.5908082,-7.6049423,,,,,,OSM,osm,https://www.openstreetmap.org/node/5581612578,0.72,False,cafe,
osm_node_5582923387,Le 5 Palmiers,,,food,cafe,,Boulevard Tah,33.5322685,-7.5849699,,,,,,OSM,osm,https://www.openstreetmap.org/node/5582923387,0.72,False,cafe,
osm_node_5582923394,Zounhours,,,food,cafe,,Boulevard Tah,33.5312563,-7.5880645,,,,,,OSM,osm,https://www.openstreetmap.org/node/5582923394,0.72,False,cafe,
osm_node_5582923417,Clip Cafe,,,food,cafe,,Avenue 2 Mars,33.5397459,-7.5998991,,,,,,OSM,osm,https://www.openstreetmap.org/node/5582923417,0.72,False,cafe,
osm_node_5583467931,Café La Source,,,food,cafe,,Avenue 2 Mars,33.5478561,-7.6020569,,,,,,OSM,osm,https://www.openstreetmap.org/node/5583467931,0.72,False,cafe,
osm_node_5583467944,Café Syntia,,,food,cafe,,Avenue 2 Mars,33.5461983,-7.6020982,,,,,,OSM,osm,https://www.openstreetmap.org/node/5583467944,0.72,False,cafe,
osm_node_5583467945,El Baouraoui Café,,,food,cafe,,Avenue 2 Mars,33.5462575,-7.6021096,,,,,,OSM,osm,https://www.openstreetmap.org/node/5583467945,0.72,False,cafe,
osm_node_5583467962,Palais Amira,,,food,cafe,,Avenue 2 Mars,33.5355652,-7.5957638,,,,,,OSM,osm,https://www.openstreetmap.org/node/5583467962,0.72,False,cafe,
osm_node_5583467968,Glacier Via Roma,,,food,ice_cream,,Avenue 2 Mars,33.5327973,-7.5939057,,,,,,OSM,osm,https://www.openstreetmap.org/node/5583467968,0.72,False,ice_cream,
osm_node_5583468018,Ixia,,,food,cafe,,Rue 13,33.539469,-7.5791851,,,,,,OSM,osm,https://www.openstreetmap.org/node/5583468018,0.72,False,cafe,
osm_node_5583468023,Crèmerie Achkid,,,food,restaurant,,Boulevard d'Amgala,33.5406446,-7.5801185,,,,,,OSM,osm,https://www.openstreetmap.org/node/5583468023,0.72,False,restaurant,
osm_node_5587128825,Kamar lebnan,Kamar lebnan,قمر لبنان,food,restaurant,,Rue Théophile Gauthier,33.5881278,-7.6310701,,,,,,OSM,osm,https://www.openstreetmap.org/node/5587128825,0.72,False,restaurant,
osm_node_5587129130,,,,food,cafe,,Rue Sebou,33.5891426,-7.6317809,,,Mo-Su 10:00-21:00,,,OSM,osm,https://www.openstreetmap.org/node/5587129130,0.72,False,cafe,
osm_node_5588876000,Cafe Rosage,,,food,cafe,,Rue 194,33.5423571,-7.5856224,,,,,,OSM,osm,https://www.openstreetmap.org/node/5588876000,0.72,False,cafe,
osm_node_5589013053,Skybury Café,,,food,cafe,,Boulevard d'Amgala,33.5375745,-7.5853535,,,,,,OSM,osm,https://www.openstreetmap.org/node/5589013053,0.72,False,cafe,
osm_node_5589013069,Espace La Parisien,,,food,cafe,,Boulevard d'Amgala,33.5369536,-7.5863788,,,,,,OSM,osm,https://www.openstreetmap.org/node/5589013069,0.72,False,cafe,
osm_node_5589013070,Cafe El Osra,,,food,cafe,,Boulevard d'Amgala,33.5367993,-7.5866456,,,,,,OSM,osm,https://www.openstreetmap.org/node/5589013070,0.72,False,cafe,
osm_node_5589013071,Espace Al Mouatine,,,food,cafe,,Boulevard de Smara,33.5353707,-7.5861213,,,,,,OSM,osm,https://www.openstreetmap.org/node/5589013071,0.72,False,cafe,
osm_node_5589013076,Espace Palma,,,food,cafe,,Boulevard de Smara,33.5344037,-7.585955,,,,,,OSM,osm,https://www.openstreetmap.org/node/5589013076,0.72,False,cafe,
osm_node_5589013094,Cafe Di Latorre,,,food,cafe,,Boulevard d'Amgala,33.5377182,-7.5857055,,,,,,OSM,osm,https://www.openstreetmap.org/node/5589013094,0.72,False,cafe,
osm_node_5589013095,Adana d'or,,,food,cafe,,Boulevard d'Amgala,33.5381005,-7.5850551,,,,,,OSM,osm,https://www.openstreetmap.org/node/5589013095,0.72,False,cafe,
osm_node_5589013100,Al Turkia,,,food,cafe,,Boulevard d'Amgala,33.5388293,-7.5838058,,,,,,OSM,osm,https://www.openstreetmap.org/node/5589013100,0.72,False,cafe,
osm_node_5589310379,Espace Laghlimi,,,food,cafe,,,33.5409129,-7.5927289,,,,,,OSM,osm,https://www.openstreetmap.org/node/5589310379,0.72,False,cafe,
osm_node_5589310384,Flamengo,,,food,fast_food,,,33.5408045,-7.5931285,,,,,,OSM,osm,https://www.openstreetmap.org/node/5589310384,0.72,False,fast_food,
osm_node_5589310410,Espace El Gharbia,,,food,cafe,,Boulevard d'Amgala,33.5373169,-7.5864244,,,,,,OSM,osm,https://www.openstreetmap.org/node/5589310410,0.72,False,cafe,
osm_node_5589310822,Glacier Valvic,,,food,ice_cream,,Boulevard Tah,33.5324843,-7.584528,,,,,,OSM,osm,https://www.openstreetmap.org/node/5589310822,0.72,False,ice_cream,
osm_node_5589310827,Cafe Al Amal,,,food,cafe,,Boulevard Tah,33.5324429,-7.5846836,,,,,,OSM,osm,https://www.openstreetmap.org/node/5589310827,0.72,False,cafe,
osm_node_5589599883,Salon de Thé,,,food,restaurant,,Boulevard Abdellah Senhaji,33.5650026,-7.5882496,,,,,,OSM,osm,https://www.openstreetmap.org/node/5589599883,0.72,False,restaurant,
osm_node_5589601434,Café Imdioune,,,food,restaurant,,Boulevard Bouchaib Doukkali,33.5691305,-7.5839634,,,,,,OSM,osm,https://www.openstreetmap.org/node/5589601434,0.72,False,restaurant,
osm_node_5589601461,Linati,,,food,restaurant,,Boulevard du Golan,33.5716212,-7.5806791,,,,,,OSM,osm,https://www.openstreetmap.org/node/5589601461,0.72,False,restaurant,
osm_node_5590929519,Argana,,,food,cafe,,Rue 60,33.5647444,-7.5915889,,,,,,OSM,osm,https://www.openstreetmap.org/node/5590929519,0.72,False,cafe,
osm_node_5591121934,Espace Al Fath,,,food,restaurant,,Rue 8,33.5698484,-7.5946172,,,,,,OSM,osm,https://www.openstreetmap.org/node/5591121934,0.72,False,restaurant,
osm_node_5591121963,La Qualité,,,food,cafe,,Rue 42,33.5655066,-7.5923198,,,,,,OSM,osm,https://www.openstreetmap.org/node/5591121963,0.72,False,cafe,
osm_node_5591121965,Argana,,,food,cafe,,Rue 55,33.5651087,-7.5919417,,,,,,OSM,osm,https://www.openstreetmap.org/node/5591121965,0.72,False,cafe,
osm_node_5593488469,Golden Space,,,food,cafe,,Boulevard de la Gironde,33.5832101,-7.5988175,,,,,,OSM,osm,https://www.openstreetmap.org/node/5593488469,0.72,False,cafe,
osm_node_5593488474,Cafe du Pont,,,food,cafe,,Boulevard de la Gironde,33.5826297,-7.5984453,,,,,,OSM,osm,https://www.openstreetmap.org/node/5593488474,0.72,False,cafe,
osm_node_5593488795,Café Sbaï,,,food,cafe,,Boulevard Abdellah Senhaji,33.5667425,-7.5894016,,,,,,OSM,osm,https://www.openstreetmap.org/node/5593488795,0.72,False,cafe,
osm_node_5595534180,Café Aswan,,,food,restaurant,,Boulevard du Golan شارع الجولان,33.5500951,-7.5677656,,,,,,OSM,osm,https://www.openstreetmap.org/node/5595534180,0.72,False,restaurant,
osm_node_5595616130,Cafe Zodiaque,,,food,cafe,,Avenue d'Oued Eddahab,33.5418954,-7.5712685,,,,,,OSM,osm,https://www.openstreetmap.org/node/5595616130,0.72,False,cafe,
osm_node_5595616134,Rainbow Cafe,,,food,restaurant,,Avenue d'Oued Eddahab,33.5401886,-7.5741479,,,,,,OSM,osm,https://www.openstreetmap.org/node/5595616134,0.72,False,restaurant,
osm_node_5595616189,Espace Changuai,,,food,restaurant,,Avenue Mekdad Lahrizi,33.5372811,-7.5734632,,,,,,OSM,osm,https://www.openstreetmap.org/node/5595616189,0.72,False,restaurant,
osm_node_5595616202,Ramada,,,food,restaurant,,Rue 188,33.539538,-7.573873,,,,,,OSM,osm,https://www.openstreetmap.org/node/5595616202,0.72,False,restaurant,
osm_node_5603003313,Cafe La Liga,,,food,cafe,,Avenue de Dakhla,33.5468661,-7.57153,,,,,,OSM,osm,https://www.openstreetmap.org/node/5603003313,0.72,False,cafe,
osm_node_5603003314,Nescafe,,,food,cafe,,Avenue de Dakhla,33.5468069,-7.5716347,,,,,,OSM,osm,https://www.openstreetmap.org/node/5603003314,0.72,False,cafe,
osm_node_5603300492,Golden Cup,,,food,cafe,,Rue 145,33.5430099,-7.5732386,,,,,,OSM,osm,https://www.openstreetmap.org/node/5603300492,0.72,False,cafe,
osm_node_5605662906,Café Anas,,,food,cafe,,Avenue du 6 Novembre 1975,33.5466593,-7.5770688,,,,,,OSM,osm,https://www.openstreetmap.org/node/5605662906,0.72,False,cafe,
osm_node_5607695572,Verona Cafe,,,food,cafe,,Avenue 6 Novembre 1975,33.5522891,-7.5823005,,,,,,OSM,osm,https://www.openstreetmap.org/node/5607695572,0.72,False,cafe,
osm_node_5608045977,Café Agadir,,,food,restaurant,,Avenue du Commandant Driss Harti,33.5488254,-7.572265,,,,,,OSM,osm,https://www.openstreetmap.org/node/5608045977,0.72,False,restaurant,
osm_node_5608200153,Cafe Rania,,,food,cafe,,Avenue Lahraouine,33.550901,-7.57429,,,,,,OSM,osm,https://www.openstreetmap.org/node/5608200153,0.72,False,cafe,
osm_node_5610101865,La Revanche,,,food,restaurant,,Rue de Dax,33.5995316,-7.5874275,,,,,,OSM,osm,https://www.openstreetmap.org/node/5610101865,0.72,False,restaurant,
osm_node_5610131614,Moody's,,,food,cafe,,Boulevard Moulay Ismail,33.598514,-7.5804283,,,,,,OSM,osm,https://www.openstreetmap.org/node/5610131614,0.72,False,cafe,
osm_node_5610371351,Canova,,,food,cafe,,Rue Saint Saëns,33.595432,-7.5874154,,,,,,OSM,osm,https://www.openstreetmap.org/node/5610371351,0.72,False,cafe,
osm_node_5610371352,Chami Bacha,,,food,restaurant,,Rue Sijlmassa,33.5914595,-7.5915232,,,,,,OSM,osm,https://www.openstreetmap.org/node/5610371352,0.72,False,restaurant,
osm_node_5611821639,Friend's Space,,,food,restaurant,,Boulevard Emile Zola,33.5963614,-7.592572,,,,,,OSM,osm,https://www.openstreetmap.org/node/5611821639,0.72,False,restaurant,
osm_node_5612459287,Wisley Gardens,,,food,restaurant,,Rue Vimy,33.5962274,-7.5905161,,,,,,OSM,osm,https://www.openstreetmap.org/node/5612459287,0.72,False,restaurant,
osm_node_5618306059,Espace Yasmine,,,food,restaurant,,Boulevard Mohamed Al Bakkali,33.5937954,-7.5178684,,,,,,OSM,osm,https://www.openstreetmap.org/node/5618306059,0.72,False,restaurant,
osm_node_5618466580,Cafe Glacier,,,food,cafe,,Route Al Jamiaa,33.567276,-7.6445413,,,,,,OSM,osm,https://www.openstreetmap.org/node/5618466580,0.72,False,cafe,
osm_node_5618469867,Cafe Barcelona,,,food,cafe,,Boulevard de la Grande Ceinture,33.5831677,-7.5543948,,,,,,OSM,osm,https://www.openstreetmap.org/node/5618469867,0.72,False,cafe,
osm_node_5620066619,Porta Biella,,,food,restaurant,,Boulevard Mohamed Zefzaf,33.5795879,-7.5127602,,,,,,OSM,osm,https://www.openstreetmap.org/node/5620066619,0.72,False,restaurant,
osm_node_5620066620,Bice Coffee,,,food,cafe,,Boulevard Mohamed Zefzaf,33.5786259,-7.5140946,,,,,,OSM,osm,https://www.openstreetmap.org/node/5620066620,0.72,False,cafe,
osm_node_5622585463,Café Napoli,,,food,cafe,,Boulevard du Nil,33.5620155,-7.5628182,,,,,,OSM,osm,https://www.openstreetmap.org/node/5622585463,0.72,False,cafe,
osm_node_5622911048,The Coffee Break,,,food,cafe,,Boulevard Ahmed Mekouar,33.6144205,-7.5353886,,,,,,OSM,osm,https://www.openstreetmap.org/node/5622911048,0.72,False,cafe,
osm_node_5622982571,Cafe El Makhfi,,,food,cafe,,Boulevard El Marinieene,33.5465565,-7.4828482,,,,,,OSM,osm,https://www.openstreetmap.org/node/5622982571,0.72,False,cafe,
osm_node_5622982588,Espace Araha,,,food,restaurant,,Boulevard El Marinieene,33.5455617,-7.4849658,,,,,,OSM,osm,https://www.openstreetmap.org/node/5622982588,0.72,False,restaurant,
osm_node_5623096368,Siciliano Cafe,,,food,cafe,,,33.6129663,-7.5457084,,,,,,OSM,osm,https://www.openstreetmap.org/node/5623096368,0.72,False,cafe,
osm_node_5625575274,Cafe L'Albatros,,,food,cafe,,Rue Hadj Omar Riffi,33.5851173,-7.6131231,,,,,,OSM,osm,https://www.openstreetmap.org/node/5625575274,0.72,False,cafe,
osm_node_5627298930,Café Aloha,Café Aloha,,food,cafe,,Rue Zerhoune,33.5848954,-7.6147637,,,,,,OSM,osm,https://www.openstreetmap.org/node/5627298930,0.72,False,cafe,
osm_node_5627299125,Pizzeria Coin Four,,,food,fast_food,,Rue Ichbilia,33.5865805,-7.6126799,,,,,,OSM,osm,https://www.openstreetmap.org/node/5627299125,0.72,False,fast_food,
osm_node_5627564259,Café Lucca El Ghazali,,,food,cafe,,Rue 58,33.5677929,-7.5606577,,,,,,OSM,osm,https://www.openstreetmap.org/node/5627564259,0.72,False,cafe,
osm_node_5632885416,Café La Canyada,,,food,cafe,,,33.5743744,-7.5580466,,,,,,OSM,osm,https://www.openstreetmap.org/node/5632885416,0.72,False,cafe,
osm_node_5632885417,Mister Tacos,,,food,restaurant,,,33.5732368,-7.5600154,,,,,,OSM,osm,https://www.openstreetmap.org/node/5632885417,0.72,False,restaurant,
osm_node_5632888433,Café Oum Erabia,,مقهى ام الربيع,food,cafe,moroccan,,33.5698423,-7.5575115,,,,,,OSM,osm,https://www.openstreetmap.org/node/5632888433,0.72,False,cafe,
osm_node_5633081279,Café Canarias,,,food,cafe,,,33.5629184,-7.539475,,,,,,OSM,osm,https://www.openstreetmap.org/node/5633081279,0.72,False,cafe,
osm_node_5633081283,Café Du Capitan,,,food,cafe,,,33.5617942,-7.5413981,,,,,,OSM,osm,https://www.openstreetmap.org/node/5633081283,0.72,False,cafe,
osm_node_5633081292,Café Rojayne,,,food,cafe,,,33.558598,-7.5465936,,,,,,OSM,osm,https://www.openstreetmap.org/node/5633081292,0.72,False,cafe,
osm_node_5633523470,Café Monsieur,,,food,cafe,,Boulevard Rahal El Meskini,33.5877075,-7.6142021,,,,,,OSM,osm,https://www.openstreetmap.org/node/5633523470,0.72,False,cafe,
osm_node_5633592496,Café Al Horia,,,food,cafe,,Avenue du 10 Mars 1982,33.5640158,-7.5694406,,,,,,OSM,osm,https://www.openstreetmap.org/node/5633592496,0.72,False,cafe,
osm_node_5633594729,Café Chabab,,,food,restaurant,,Avenue du 10 Mars 1982,33.5618099,-7.5656694,,,,,,OSM,osm,https://www.openstreetmap.org/node/5633594729,0.72,False,restaurant,
osm_node_5633748066,Café Rostou,,,food,cafe,,Boulevard Abou Horaira,33.5619356,-7.5719364,,,,,,OSM,osm,https://www.openstreetmap.org/node/5633748066,0.72,False,cafe,
osm_node_5633938187,Café Les Alpes,,,food,cafe,,Boulevard de la Liberté,33.5869275,-7.6119141,,,,,,OSM,osm,https://www.openstreetmap.org/node/5633938187,0.72,False,cafe,
osm_node_5635916015,Cafe Le 13,,,food,cafe,,Rue 1,33.5553235,-7.6269016,,,,,,OSM,osm,https://www.openstreetmap.org/node/5635916015,0.72,False,cafe,
osm_node_5636025115,L'Araignee,,,food,restaurant,,Boulevard Hassan Alaoui,33.5783371,-7.5884742,,,,,,OSM,osm,https://www.openstreetmap.org/node/5636025115,0.72,False,restaurant,
osm_node_5636182959,Pizza Hut,,,food,restaurant,,Boulevard Taddart,33.5559918,-7.6280361,,,,,,OSM,osm,https://www.openstreetmap.org/node/5636182959,0.72,False,restaurant,
osm_node_5636182968,Restaurant Sushing,,,food,restaurant,,Route de Taddart,33.5552927,-7.6239109,,,,,,OSM,osm,https://www.openstreetmap.org/node/5636182968,0.72,False,restaurant,
osm_node_5636182970,La Goyave,,,food,cafe,,Route de Taddart,33.5543439,-7.6237741,,,,,,OSM,osm,https://www.openstreetmap.org/node/5636182970,0.72,False,cafe,
osm_node_5636200693,Café Al Amana,,,food,cafe,,Rue Ibnou Bouraid,33.583915,-7.6283175,,,,,,OSM,osm,https://www.openstreetmap.org/node/5636200693,0.72,False,cafe,
osm_node_5636200705,Café Club,,,food,cafe,,,33.5828766,-7.6294366,,,,,,OSM,osm,https://www.openstreetmap.org/node/5636200705,0.72,False,cafe,
osm_node_5636207647,Cremerie Cadillac,,,food,restaurant,,Boulevard de Paris,33.593863,-7.6215278,,,,,,OSM,osm,https://www.openstreetmap.org/node/5636207647,0.72,False,restaurant,
osm_node_5636207683,Espace Café,,,food,cafe,,Rue Al Woroud,33.5845274,-7.6211093,,,,,,OSM,osm,https://www.openstreetmap.org/node/5636207683,0.72,False,cafe,
osm_node_5636207684,Dragon Rouge,,,food,restaurant,chinese,Rue Mostafa Al Maani,33.5866702,-7.6195295,,,,,,OSM,osm,https://www.openstreetmap.org/node/5636207684,0.72,False,restaurant,
osm_node_5636207685,Café Élite,Café Élite,,food,cafe,,Rue Mostafa Al Maani,33.5867395,-7.6191245,,,,,,OSM,osm,https://www.openstreetmap.org/node/5636207685,0.72,False,cafe,
osm_node_5636207686,Glacier Cafeteria Tasman,,,food,cafe,,Rue Omarslaoui,33.5871897,-7.6202121,,,,,,OSM,osm,https://www.openstreetmap.org/node/5636207686,0.72,False,cafe,
osm_node_5636207687,Tacos Paco's,,,food,restaurant,,Rue Omarslaoui,33.5873919,-7.6200056,,,,,,OSM,osm,https://www.openstreetmap.org/node/5636207687,0.72,False,restaurant,
osm_node_5636207689,ماكدونالدز,McDonald's,ماكدونالدز,food,fast_food,burger,Avenue Mers Sultan,33.5881192,-7.6175943,,,,,ماكدونالدز,OSM,osm,https://www.openstreetmap.org/node/5636207689,0.72,False,fast_food,
osm_node_5636207695,Brasserie Soleil,,,food,cafe,pizza,Rue Tarrablous,33.5877405,-7.6189394,,,,,,OSM,osm,https://www.openstreetmap.org/node/5636207695,0.72,False,cafe,
osm_node_5636207699,Restaurant Anfa,,,food,restaurant,moroccan,Rue Allal Al Fassi,33.587965,-7.6181281,,,Mo-Su 12:00-02:00,,,OSM,osm,https://www.openstreetmap.org/node/5636207699,0.72,False,restaurant,
osm_node_5636207700,Café Faracha,,,food,cafe,,Rue Allal Al Fassi,33.5879583,-7.6182568,,,,,,OSM,osm,https://www.openstreetmap.org/node/5636207700,0.72,False,cafe,
osm_node_5636207701,Café la Palmerale,,,food,cafe,,Rue Allal Al Fassi,33.5879494,-7.6185545,,,,,,OSM,osm,https://www.openstreetmap.org/node/5636207701,0.72,False,cafe,
osm_node_5636207702,Chawarmati,,,food,restaurant,,Rue Allal Al Fassi,33.5879293,-7.6187316,,,,,,OSM,osm,https://www.openstreetmap.org/node/5636207702,0.72,False,restaurant,
osm_node_5636207703,Le Triangle,,,food,restaurant,pizza,Rue Allal Al Fassi,33.5879136,-7.6188844,,,,,,OSM,osm,https://www.openstreetmap.org/node/5636207703,0.72,False,restaurant,
osm_node_5636207704,Café Le Capitole,,,food,cafe,,Rue Allal Al Fassi,33.5879025,-7.6191325,,,,,,OSM,osm,https://www.openstreetmap.org/node/5636207704,0.72,False,cafe,
osm_node_5636207706,Midi Grill,,,food,restaurant,,Rue Omarslaoui,33.5882734,-7.6191768,,,,,,OSM,osm,https://www.openstreetmap.org/node/5636207706,0.72,False,restaurant,
osm_node_5636207716,Génial,,,food,restaurant,,Boulevard de Paris,33.5939764,-7.6212837,,,,,,OSM,osm,https://www.openstreetmap.org/node/5636207716,0.72,False,restaurant,
osm_node_5636207735,Fish,,,food,restaurant,,Rue Omarslaoui,33.5884516,-7.6189864,,,,,,OSM,osm,https://www.openstreetmap.org/node/5636207735,0.72,False,restaurant,
osm_node_5636207737,VIP Ole Cafe,,,food,cafe,,Rue Lieutenent Berger,33.5885756,-7.6196589,,,,,,OSM,osm,https://www.openstreetmap.org/node/5636207737,0.72,False,cafe,
osm_node_5636207738,Cafe Nadif,,,food,cafe,,Rue Lieutenent Berger,33.588751,-7.619964,,,,,,OSM,osm,https://www.openstreetmap.org/node/5636207738,0.72,False,cafe,
osm_node_5636207746,Woody Chay Pizza,,,food,restaurant,,Rue Omarslaoui,33.58644,-7.6212743,,,,,,OSM,osm,https://www.openstreetmap.org/node/5636207746,0.72,False,restaurant,
osm_node_5636207747,Sushi Kiosque,,,food,restaurant,,Rue Omarslaoui,33.5863831,-7.6213648,,,,,,OSM,osm,https://www.openstreetmap.org/node/5636207747,0.72,False,restaurant,
osm_node_5636207748,Café Fiori,,,food,cafe,,Avenue Hassan II,33.5862713,-7.6216806,,,,,,OSM,osm,https://www.openstreetmap.org/node/5636207748,0.72,False,cafe,
osm_node_5636207783,La Rotonde,,,food,restaurant,,Boulevard Mohamed Zerktouni,33.5835632,-7.6231066,,,,,,OSM,osm,https://www.openstreetmap.org/node/5636207783,0.72,False,restaurant,
osm_node_5636207785,Red Coffee,,,food,cafe,italian_pizza;chicken;burger;noodles;pasta;moroccan;breakfast;coffee_shop;local,Boulevard Mohamed Zerktouni,33.583428,-7.6228702,,,,,,OSM,osm,https://www.openstreetmap.org/node/5636207785,0.72,False,cafe,
osm_node_5636207786,Pizzaria le Drapeau,,,food,restaurant,pizza,Rue Errommene,33.5837218,-7.6222828,,,,,,OSM,osm,https://www.openstreetmap.org/node/5636207786,0.72,False,restaurant,
osm_node_5636207793,El Presto,,,food,cafe,,Rue Mostafa Al Maani,33.5853457,-7.6211469,,,,,,OSM,osm,https://www.openstreetmap.org/node/5636207793,0.72,False,cafe,
osm_node_5636207794,Café Icarus,Café Icarus,,food,cafe,,Rue Mostafa Al Maani,33.585291,-7.6211999,,,,,,OSM,osm,https://www.openstreetmap.org/node/5636207794,0.72,False,cafe,
osm_node_5636207795,Café Panam,Café Panam,,food,cafe,,Rue Al Woroud,33.5851156,-7.6208572,,,,,,OSM,osm,https://www.openstreetmap.org/node/5636207795,0.72,False,cafe,
osm_node_5636207796,La Fontaine à Jus,,,food,cafe,,Rue Al Woroud,33.5850083,-7.6209129,,,,,,OSM,osm,https://www.openstreetmap.org/node/5636207796,0.72,False,cafe,
osm_node_5636207801,Cafétéria Tassili,Cafétéria Tassili,,food,cafe,,Rue Saad Ben Abi Waqqas,33.5844994,-7.6213132,,,,,,OSM,osm,https://www.openstreetmap.org/node/5636207801,0.72,False,cafe,
osm_node_5636207803,Meson Asador,,,food,restaurant,,Rue Al Woroud,33.5847519,-7.6210168,+212 5 22 26 18 18,https://m.facebook.com/mesonasadorcasa/,Mo-Su 12:00-24:00,,,OSM,osm,https://www.openstreetmap.org/node/5636207803,0.72,False,restaurant,
osm_node_5636207804,Los Olivos,,,food,restaurant,,Rue El Haman,33.5846997,-7.6204271,,,,,,OSM,osm,https://www.openstreetmap.org/node/5636207804,0.72,False,restaurant,
osm_node_5636207807,Ballon Ovale,,,food,cafe,,Rue Agadir,33.5836123,-7.6196985,,,,,,OSM,osm,https://www.openstreetmap.org/node/5636207807,0.72,False,cafe,
osm_node_5638347783,Café Bleu-Blanc,Café Bleu-Blanc,,food,cafe,,Rue Al Mortada,33.5829219,-7.6307144,,,,,,OSM,osm,https://www.openstreetmap.org/node/5638347783,0.72,False,cafe,
osm_node_5638347795,Speedy Pizza,,,food,restaurant,pizza,Boulevard Ibrahim Roudani,33.5829487,-7.6325181,,,,,,OSM,osm,https://www.openstreetmap.org/node/5638347795,0.72,False,restaurant,
osm_node_5638347843,Treff Restaurant,,,food,restaurant,,Boulevard Ibrahim Roudani,33.5852524,-7.6301752,,,,,,OSM,osm,https://www.openstreetmap.org/node/5638347843,0.72,False,restaurant,
osm_node_5638347921,Glacier Missouri,,,food,cafe,,Rue Mohamed Bahi,33.5802013,-7.6334944,,,,,,OSM,osm,https://www.openstreetmap.org/node/5638347921,0.72,False,cafe,
osm_node_5638347926,Café de Nono,Café de Nono,,food,cafe,,Rue Mohamed Bahi,33.5798063,-7.6346713,,,,,,OSM,osm,https://www.openstreetmap.org/node/5638347926,0.72,False,cafe,
osm_node_5638347965,Bio Ice,,,food,bar,,Boulevard du 9 Avril شارع 9 أبريل,33.580976,-7.6322449,,,,,,OSM,osm,https://www.openstreetmap.org/node/5638347965,0.72,False,bar,
osm_node_5638523772,Café Palmier,Café Palmier,,food,cafe,,Rue Jabir Al Ansari,33.5783147,-7.630255,,,,,,OSM,osm,https://www.openstreetmap.org/node/5638523772,0.72,False,cafe,
osm_node_5640034522,Clic Resto,,,food,restaurant,,,33.5692119,-7.6464826,,,,,,OSM,osm,https://www.openstreetmap.org/node/5640034522,0.72,False,restaurant,
osm_node_5640034523,Snack Wassila,,,food,fast_food,,,33.572345,-7.6488023,,,,,,OSM,osm,https://www.openstreetmap.org/node/5640034523,0.72,False,fast_food,
osm_node_5640034524,Pizza Hut,,,food,restaurant,pizza,Boulevard Ghandi شارع غاندي,33.5705845,-7.6461728,,,,,Pizza Hut,OSM,osm,https://www.openstreetmap.org/node/5640034524,0.72,False,restaurant,
osm_node_5640191728,Café Snack Al Hadaf,,,food,cafe,,,33.5725732,-7.6305762,,,,,,OSM,osm,https://www.openstreetmap.org/node/5640191728,0.72,False,cafe,
osm_node_5640191735,Salon Thé,,,food,cafe,,Zanqat 93,33.5725537,-7.6294597,,,,,,OSM,osm,https://www.openstreetmap.org/node/5640191735,0.72,False,cafe,
osm_node_5640192181,Fuego,,,food,cafe,,Zanqat 93,33.5739174,-7.6309879,,,,,,OSM,osm,https://www.openstreetmap.org/node/5640192181,0.72,False,cafe,
osm_node_5640192221,Les Amis,,,food,cafe,,Boulevard Abdelmoumen,33.5751555,-7.6260312,,,,,,OSM,osm,https://www.openstreetmap.org/node/5640192221,0.72,False,cafe,
osm_node_5640192231,Café Abd El Moumen,,,food,cafe,,Boulevard Abdelmoumen,33.5748985,-7.6260272,,,,,,OSM,osm,https://www.openstreetmap.org/node/5640192231,0.72,False,cafe,
osm_node_5640584128,Clay Oven,,,food,restaurant,,Boulevard Gandhi,33.5689908,-7.6432429,,,,,,OSM,osm,https://www.openstreetmap.org/node/5640584128,0.72,False,restaurant,
osm_node_5640584196,Ifri,,,food,cafe,,Boulevard Ibrahim Roudani,33.5745655,-7.6403026,,,,,,OSM,osm,https://www.openstreetmap.org/node/5640584196,0.72,False,cafe,
osm_node_5640584424,Château de Jus,Château de Jus,,food,restaurant,,Boulevard Ibrahim Roudani,33.5796337,-7.6357582,,,,,,OSM,osm,https://www.openstreetmap.org/node/5640584424,0.72,False,restaurant,
osm_node_5640584526,Café Arcadie,,,food,cafe,,Boulevard Ibrahim Roudani,33.5704211,-7.643538,,,,,,OSM,osm,https://www.openstreetmap.org/node/5640584526,0.72,False,cafe,
osm_node_5640731981,Real Time Coffee,,,food,cafe,,,33.5729262,-7.6383609,,,,,,OSM,osm,https://www.openstreetmap.org/node/5640731981,0.72,False,cafe,
osm_node_5640732011,Le Brunch Gourmet,,,food,restaurant,,Rue Le Titien,33.575946,-7.6357397,,,,,,OSM,osm,https://www.openstreetmap.org/node/5640732011,0.72,False,restaurant,
osm_node_5649874876,Phuket's,,,food,cafe,,Rue Le Titien,33.5757584,-7.636172,,,,,,OSM,osm,https://www.openstreetmap.org/node/5649874876,0.72,False,cafe,
osm_node_5649874898,Lopez,,,food,fast_food,pizza;kebab,,33.572937,-7.6387234,,,,,,OSM,osm,https://www.openstreetmap.org/node/5649874898,0.72,False,fast_food,
osm_node_5649875030,Ambre,,,food,restaurant,,Rue Al Bachir Laalaj,33.572219,-7.6378034,,,,,,OSM,osm,https://www.openstreetmap.org/node/5649875030,0.72,False,restaurant,
osm_node_5649875034,Mira Fiori,,,food,cafe,,,33.5744069,-7.6377277,,,,,,OSM,osm,https://www.openstreetmap.org/node/5649875034,0.72,False,cafe,
osm_node_5649914770,Café Majorelle,,,food,cafe,,Boulevard Chefchaoui,33.6135058,-7.5274158,,,,,,OSM,osm,https://www.openstreetmap.org/node/5649914770,0.72,False,cafe,
osm_node_5652341952,Cafe Agouz Harbala,,,food,cafe,,Zanqat 3,33.5382832,-7.5869816,,,,,,OSM,osm,https://www.openstreetmap.org/node/5652341952,0.72,False,cafe,
osm_node_5652654437,La Seine,,,food,cafe,,Boulevard Abdelmoumen,33.5689662,-7.62583,,,,,,OSM,osm,https://www.openstreetmap.org/node/5652654437,0.72,False,cafe,
osm_node_5652698671,Cafe Roma!,,,food,cafe,,Rue 1,33.5343869,-7.5896323,,,,,,OSM,osm,https://www.openstreetmap.org/node/5652698671,0.72,False,cafe,
osm_node_5652698714,Cafe El Mamouina,,,food,cafe,,Boulevard de Smara,33.5405574,-7.5940479,,,,,,OSM,osm,https://www.openstreetmap.org/node/5652698714,0.72,False,cafe,
osm_node_5653925587,Cafe 7iLES,,,food,cafe,,Boulevard de Tiflet,33.5379205,-7.5953695,,,,,,OSM,osm,https://www.openstreetmap.org/node/5653925587,0.72,False,cafe,
osm_node_5653995948,Milk House,,,food,cafe,,Avenue 2 Mars,33.5393329,-7.599079,,,,,,OSM,osm,https://www.openstreetmap.org/node/5653995948,0.72,False,cafe,
osm_node_5653995955,Glace Istambul,,,food,ice_cream,,Avenue 2 Mars,33.539064,-7.5988892,,,,,,OSM,osm,https://www.openstreetmap.org/node/5653995955,0.72,False,ice_cream,
osm_node_5653995956,Cafe Galactica,,,food,cafe,,Avenue 2 Mars,33.5391445,-7.5989114,,,,,,OSM,osm,https://www.openstreetmap.org/node/5653995956,0.72,False,cafe,
osm_node_5654105797,Massilya Cafe,,,food,cafe,,Boulevard d'Anoual,33.5695909,-7.6257804,,,,,,OSM,osm,https://www.openstreetmap.org/node/5654105797,0.72,False,cafe,
osm_node_5654314143,Café Essannara,,,food,cafe,,40 Zanqat,33.570073,-7.6076353,,,,,,OSM,osm,https://www.openstreetmap.org/node/5654314143,0.72,False,cafe,
osm_node_5654314218,Cafe Riscatto,,,food,cafe,,40 Zanqat,33.5701161,-7.6066791,,,,,,OSM,osm,https://www.openstreetmap.org/node/5654314218,0.72,False,cafe,
osm_node_5654640885,Espace Essaha,,,food,restaurant,,Rue 29,33.5695652,-7.604255,,,,,,OSM,osm,https://www.openstreetmap.org/node/5654640885,0.72,False,restaurant,
osm_node_5654641157,Espace El Mitre,,,food,restaurant,,Rue 10,33.5666319,-7.6085828,,,,,,OSM,osm,https://www.openstreetmap.org/node/5654641157,0.72,False,restaurant,
osm_node_5654641158,Espace Bruxellois,,,food,restaurant,,Rue 10,33.566647,-7.6085942,,,,,,OSM,osm,https://www.openstreetmap.org/node/5654641158,0.72,False,restaurant,
